SALE TYPE,HOME TYPE,ADDRESS,CITY,STATE,ZIP,LIST PRICE,BEDS,BATHS,LOCATION,SQFT,LOT SIZE,YEAR BUILT,PARKING SPOTS,PARKING TYPE,DAYS ON MARKET,STATUS,NEXT OPEN HOUSE DATE,NEXT OPEN HOUSE START TIME,NEXT OPEN HOUSE END TIME,RECENT REDUCTION DATE,ORIGINAL LIST PRICE,LAST SALE DATE,LAST SALE PRICE,URL (SEE http://www.redfin.com/buy-a-home/comparative-market-analysis FOR INFO ON PRICING),SOURCE,LISTING ID,ORIGINAL SOURCE,FAVORITE,INTERESTED,LATITUDE,LONGITUDE,IS SHORT SALE
MLS Listing,Multi-Family (2-4 Unit),913-915 Miller Ave,CUPERTINO,CA,95014,1548888,4,,CUPERTINO,2082,6900,1962,2,Garage,1,Active,,,,,1548888,2013-10-18,1165000.0,http://www.redfin.com/CA/Cupertino/915-Miller-Ave-95014/home/847760,MLSListings Inc. (MLSLI),ML81590693,Intero Real Estate Services,N,Y,37.312109,-122.013788,false
MLS Listing,Townhouse,10338 Lozano Ln,CUPERTINO,CA,95014,1499000,4,3.0,CUPERTINO,2012,3249,2003,2,Garage,1,Active,2016-06-17,11:00,14:00,,1499000,2006-05-24,1010000.0,http://www.redfin.com/CA/Cupertino/10338-Lozano-Ln-95014/home/1408287,MLSListings Inc. (MLSLI),ML81590676,Coldwell Banker,N,Y,37.3197202,-122.0251843,false
MLS Listing,Townhouse,21056 White Fir Ct,CUPERTINO,CA,95014,875000,2,1.5,CUPERTINO,1003,,1971,1,Garage,1,Active,2016-06-16,9:30,12:30,,875000,,,http://www.redfin.com/CA/Cupertino/21056-White-Fir-Ct-95014/home/801254,MLSListings Inc. (MLSLI),ML81590637,Coldwell Banker,N,Y,37.3134469,-122.04236,false
MLS Listing,Single Family Residential,22661 San Juan Rd,CUPERTINO,CA,95014,2998000,5,3.5,CUPERTINO,3273,29098,2011,3,Garage,1,Active,2016-06-18,13:00,16:00,,2998000,2008-09-19,990000.0,http://www.redfin.com/CA/Cupertino/22661-San-Juan-Rd-95014/home/21840744,MLSListings Inc. (MLSLI),ML81590614,Sereno Group,N,Y,37.312198,-122.071201,false
MLS Listing,Single Family Residential,10367 San Fernando Ave,CUPERTINO,CA,95014,1850000,2,2.0,CUPERTINO,1550,10201,1957,2,Garage,2,Active,2016-06-18,13:00,16:00,,1850000,,,http://www.redfin.com/CA/Cupertino/10367-San-Fernando-Ave-95014/home/1615496,MLSListings Inc. (MLSLI),ML81590418,Keller Williams Realty-Silicon Valley,N,Y,37.3172785,-122.0597234,false
MLS Listing,Single Family Residential,21980 McClellan Rd,CUPERTINO,CA,95014,1888000,4,2.5,CUPERTINO,1838,7500,1962,5,Garage,3,Active,2016-06-18,13:00,16:00,,1888000,2015-03-24,1838000.0,http://www.redfin.com/CA/Cupertino/21980-McClellan-Rd-95014/home/1510693,MLSListings Inc. (MLSLI),ML81590232,Altas Realty,N,Y,37.3147382,-122.0588095,false
MLS Listing,Single Family Residential,18460 Farmingham Way,CUPERTINO,CA,95014,1895000,4,3.0,CUPERTINO,2816,5684,1990,2,Garage,5,Active,2016-06-18,14:00,16:00,,1895000,2007-09-11,1461000.0,http://www.redfin.com/CA/Cupertino/18460-Farmingham-Way-95014/home/926784,MLSListings Inc. (MLSLI),ML81590124,Sereno Group,N,Y,37.311645,-121.997815,false
MLS Listing,Single Family Residential,18841 Barnhart Ave,CUPERTINO,CA,95014,1238000,2,1.0,CUPERTINO,814,5353,1953,1,Garage,5,Active,2016-06-16,9:30,12:30,,1238000,1983-03-01,70000.0,http://www.redfin.com/CA/Cupertino/18841-Barnhart-Ave-95014/home/1805365,MLSListings Inc. (MLSLI),ML81590087,Maxreal,N,Y,37.315692,-122.00142,false
MLS Listing,Single Family Residential,10263 Miner Pl,CUPERTINO,CA,95014,1680000,3,2.0,CUPERTINO,1862,6608,1977,2,Garage,5,Active,,,,,1680000,1995-09-18,415000.0,http://www.redfin.com/CA/Cupertino/10263-Miner-Pl-95014/home/1475601,MLSListings Inc. (MLSLI),ML81589989,Coldwell Banker,N,Y,37.3269019,-122.030778,false
MLS Listing,Condo/Coop,10421 Mary Ave,CUPERTINO,CA,95014,998000,2,1.5,CUPERTINO,1216,1598,1971,1,Garage,7,Active,,,,,998000,1992-01-29,192000.0,http://www.redfin.com/CA/Cupertino/10421-Mary-Ave-95014/home/1178490,MLSListings Inc. (MLSLI),ML81589552,Coldwell Banker,N,Y,37.329962,-122.051338,false
MLS Listing,Single Family Residential,10251 Miller Ave,CUPERTINO,CA,95014,1438000,3,2.0,CUPERTINO,1540,4106,1976,2,Garage,7,Active,,,,,1348000,2010-09-17,780000.0,http://www.redfin.com/CA/Cupertino/10251-Miller-Ave-95014/home/1487505,MLSListings Inc. (MLSLI),ML81589548,Coldwell Banker,N,Y,37.3193982,-122.0141394,false
MLS Listing,Townhouse,21694 Olive Ave,CUPERTINO,CA,95014,1139888,2,2.5,CUPERTINO,1499,1579,1985,1,Garage,7,Active,2016-06-18,13:00,16:00,2016-06-15,1180000,2012-11-20,815000.0,http://www.redfin.com/CA/Cupertino/21694-Olive-Ave-95014/home/783467,MLSListings Inc. (MLSLI),ML81589487,Bay Realty Group,N,Y,37.3188665,-122.054293,false
MLS Listing,Townhouse,20151 Northwood Dr,CUPERTINO,CA,95014,989000,2,2.0,CUPERTINO,1142,1440,1973,2,Garage,8,Active,2016-06-17,17:30,19:30,,989000,,,http://www.redfin.com/CA/Cupertino/20151-Northwood-Dr-95014/home/1061913,MLSListings Inc. (MLSLI),ML81589466,Intero Real Estate Services,N,Y,37.334942,-122.026918,false
MLS Listing,Single Family Residential,10200 Empire Ave,CUPERTINO,CA,95014,1200000,5,3.5,CUPERTINO,2643,4855,2016,2,Garage,9,Active,,,,,1200000,2015-07-15,950000.0,http://www.redfin.com/CA/Cupertino/10200-Empire-Ave-95014/home/17293475,MLSListings Inc. (MLSLI),ML81589183,"Devi Strass, Broker",N,Y,37.325798,-122.051925,false
MLS Listing,Townhouse,22270 Homestead Rd,CUPERTINO,CA,95014,1095000,3,2.5,CUPERTINO,1254,1700,1973,2,Garage,12,Active,,,,2016-06-03,1099888,2005-05-27,655000.0,http://www.redfin.com/CA/Cupertino/22270-Homestead-Rd-95014/home/1417732,MLSListings Inc. (MLSLI),ML81588909,Referral Realty,N,Y,37.337214,-122.064576,false
MLS Listing,Condo/Coop,10232 Nile Dr,CUPERTINO,CA,95014,768000,1,1.0,CUPERTINO,884,1056,1986,2,Garage,12,Active,,,,,768000,2013-06-07,560000.0,http://www.redfin.com/CA/Cupertino/10232-Nile-Dr-95014/home/789974,MLSListings Inc. (MLSLI),ML81588789,Silicon Valley Associates Inc.,N,Y,37.320372,-122.027272,false
MLS Listing,Single Family Residential,866 Bette Ave,CUPERTINO,CA,95014,2100000,4,3.0,CUPERTINO,2046,6000,1958,2,Garage,14,Active,,,,,2100000,2008-03-25,920000.0,http://www.redfin.com/CA/Cupertino/866-Bette-Ave-95014/home/788801,MLSListings Inc. (MLSLI),ML81588363,"Davey & Associates Real Estate, Inc.",N,Y,37.313975,-122.021005,false
MLS Listing,Single Family Residential,10313 Blaney Ct,CUPERTINO,CA,95014,1898000,4,2.5,CUPERTINO,2269,8925,1968,2,Garage,14,Active,,,,,1898000,,,http://www.redfin.com/CA/Cupertino/10313-Blaney-Ct-95014/home/1516509,MLSListings Inc. (MLSLI),ML81588293,Intero Real Estate Services,N,Y,37.3182029,-122.023794,false
MLS Listing,Condo/Coop,10355 Mary Ave,CUPERTINO,CA,95014,959000,2,1.5,CUPERTINO,1216,1600,1971,1,Garage,14,Active,,,,,959000,2006-03-22,599000.0,http://www.redfin.com/CA/Cupertino/10355-Mary-Ave-95014/home/1696714,MLSListings Inc. (MLSLI),ML81588279,Home Advantage Corp,N,Y,37.329254,-122.051379,false
MLS Listing,Single Family Residential,10744 Morengo Dr,CUPERTINO,CA,95014,1688000,5,3.0,CUPERTINO,2233,6973,1964,0,,14,Active,,,,,1688000,1970-02-25,24500.0,http://www.redfin.com/CA/Cupertino/10744-Morengo-Dr-95014/home/1663362,MLSListings Inc. (MLSLI),ML81588224,Keller Williams Los Gatos Estates,N,Y,37.312139,-122.00468,false
MLS Listing,Townhouse,20244 Northglen Sq,CUPERTINO,CA,95014,979000,2,2.0,CUPERTINO,1060,1346,1973,2,Garage,14,Active,2016-06-18,13:30,16:30,,979000,2013-08-23,760000.0,http://www.redfin.com/CA/Cupertino/20244-Northglen-Sq-95014/home/1644119,MLSListings Inc. (MLSLI),ML81588223,Alain Pinel Realtors,N,Y,37.335652,-122.027847,false
MLS Listing,Single Family Residential,7407 Tiptoe Ln,CUPERTINO,CA,95014,2097000,4,2.0,CUPERTINO,2208,10137,1959,2,Garage,15,Active,,,,,1899000,,,http://www.redfin.com/CA/Cupertino/7407-Tiptoe-Ln-95014/home/1265496,MLSListings Inc. (MLSLI),ML81588168,Alta Pacific Realty,N,Y,37.307985,-122.034425,false
MLS Listing,Multi-Family (2-4 Unit),10398 Lockwood Dr,CUPERTINO,CA,95014,1980000,4,,CUPERTINO,2573,8637,1963,2,Garage,19,Active,,,,,1980000,,,http://www.redfin.com/CA/Cupertino/10398-Lockwood-Dr-95014/home/1401395,MLSListings Inc. (MLSLI),ML81587709,Keller Williams Realty - Cupertino,N,Y,37.317314,-122.071942,false
MLS Listing,Single Family Residential,20385 Via Palamos,CUPERTINO,CA,95014,1850000,5,3.0,CUPERTINO,2356,4791,1995,2,Garage,21,Active,,,,,1850000,,,http://www.redfin.com/CA/Cupertino/20385-Via-Palamos-95014/home/764889,MLSListings Inc. (MLSLI),ML81587364,"Meilin Liu, Broker",N,Y,37.335585,-122.030383,false
MLS Listing,Townhouse,21069 Red Fir Ct,CUPERTINO,CA,95014,1088888,3,2.0,CUPERTINO,1202,1934,1971,1,Garage,22,Active,,,,,1088888,2003-08-21,465000.0,http://www.redfin.com/CA/Cupertino/21069-Red-Fir-Ct-95014/home/1293812,MLSListings Inc. (MLSLI),ML81587136,Realty Pro,N,Y,37.315359,-122.042809,false
MLS Listing,Condo/Coop,20649 Celeste Cir,CUPERTINO,CA,95014,899950,2,2.0,CUPERTINO,1199,1176,1984,1,Garage,26,Active,,,,,899950,2007-05-15,605000.0,http://www.redfin.com/CA/Cupertino/20649-Celeste-Cir-95014/home/777155,MLSListings Inc. (MLSLI),ML81586656,Intero Real Estate Services,N,Y,37.335521,-122.03595,false
MLS Listing,Single Family Residential,10240 Phar Lap Dr,CUPERTINO,CA,95014,2195800,5,3.0,CUPERTINO,2664,9520,1972,2,Garage,35,Active,,,,,2195800,,,http://www.redfin.com/CA/Cupertino/10240-Phar-Lap-Dr-95014/home/774754,MLSListings Inc. (MLSLI),ML81584928,Referral Realty,N,Y,37.3270089,-122.058917,false
MLS Listing,Townhouse,21697 Lomita Ave,CUPERTINO,CA,95014,1098000,2,2.5,CUPERTINO,1226,2622,1990,3,Garage,35,Active,,,,,1098000,2003-09-19,520000.0,http://www.redfin.com/CA/Cupertino/21697-Lomita-Ave-95014/unit-CU/home/1382931,MLSListings Inc. (MLSLI),ML81584925,Alain Pinel Realtors,N,Y,37.3206245,-122.0541651,false
MLS Listing,Townhouse,19821 Portal Plz,CUPERTINO,CA,95014,949000,2,1.5,CUPERTINO,1191,801,1982,1,Garage,35,Active,,,,2016-06-02,975000,2007-04-24,613500.0,http://www.redfin.com/CA/Cupertino/19821-Portal-Plz-95014/home/1431367,MLSListings Inc. (MLSLI),ML81584904,Intero Real Estate Services,N,Y,37.3223119,-122.019935,false
MLS Listing,Townhouse,20305 Northglen Sq,CUPERTINO,CA,95014,985000,2,2.0,CUPERTINO,1060,1346,1973,2,Garage,35,Active,,,,,985000,2007-02-09,565000.0,http://www.redfin.com/CA/Cupertino/20305-Northglen-Sq-95014/home/1503431,MLSListings Inc. (MLSLI),ML81584892,Coldwell Banker,N,Y,37.335777,-122.028856,false
MLS Listing,Single Family Residential,15120 Montebello Rd,CUPERTINO,CA,95014,2888000,4,3.5,CUPERTINO,3413,40510,2009,30,Garage,43,Active,,,,2016-06-04,3088000,2007-03-02,1030000.0,http://www.redfin.com/CA/Cupertino/15120-Montebello-Rd-95014/home/780393,MLSListings Inc. (MLSLI),ML81583615,Referral Realty,N,Y,37.290521,-122.096153,false
MLS Listing,Single Family Residential,15040 Montebello Rd,CUPERTINO,CA,95014,1688000,3,2.0,CUPERTINO,2574,73468,1950,10,Garage,43,Active,,,,,1688000,2001-01-10,1425000.0,http://www.redfin.com/CA/Cupertino/Montebello-Rd-95014/home/996193,MLSListings Inc. (MLSLI),ML81583584,Referral Realty,N,Y,37.291611,-122.097279,false
MLS Listing,Condo/Coop,10058 Orange Ave,CUPERTINO,CA,95014,1299000,2,2.0,CUPERTINO,1737,1873,2010,1,Garage,43,Active,,,,,1299000,2011-03-29,680000.0,http://www.redfin.com/CA/Cupertino/10058-Orange-Ave-95014/home/25664329,MLSListings Inc. (MLSLI),ML81583564,"Jackson Tsai, Broker",N,Y,37.3219834,-122.0554654,false
MLS Listing,Multi-Family (2-4 Unit),10335 El Prado Way,CUPERTINO,CA,95014,2030000,5,,CUPERTINO,2647,9230,1971,2,Garage,49,Active,,,,,2030000,,,http://www.redfin.com/CA/Cupertino/10335-El-Prado-Way-95014/home/1065187,MLSListings Inc. (MLSLI),ML81582500,Brittain Commercial,N,Y,37.3184016,-122.0751299,false
MLS Listing,Multi-Family (2-4 Unit),10315 El Prado Way,CUPERTINO,CA,95014,2030000,5,,CUPERTINO,2520,9443,1970,2,Garage,49,Active,,,,,2030000,,,http://www.redfin.com/CA/Cupertino/10315-El-Prado-Way-95014/unit-A/home/1683863,MLSListings Inc. (MLSLI),ML81582498,Brittain Commercial,N,Y,37.3186084,-122.0751257,false
MLS Listing,Condo/Coop,10745 N De Anza Blvd #303,CUPERTINO,CA,95014,828888,1,1.5,CUPERTINO,1209,1293,2008,2,Garage,49,Active,,,,2016-05-31,898888,,,http://www.redfin.com/CA/Cupertino/10745-N-De-Anza-Blvd-95014/unit-303/home/105424860,MLSListings Inc. (MLSLI),ML81582492,AFI Real Estate,N,Y,37.333199,-122.032805,false
MLS Listing,Single Family Residential,21904 Dos Palos Ct,CUPERTINO,CA,95014,2550000,5,3.0,CUPERTINO,3508,14737,1964,5,Garage,50,Active,,,,2016-06-01,2695000,2010-07-09,1624000.0,http://www.redfin.com/CA/Cupertino/21904-Dos-Palos-Ct-95014/home/1471736,MLSListings Inc. (MLSLI),ML81582383,Coldwell Banker,N,Y,37.32865,-122.058301,false
MLS Listing,Single Family Residential,11528 Bianchini Ln,CUPERTINO,CA,95014,1298000,3,2.5,CUPERTINO,1753,1658,2005,2,Garage,52,Active,,,,2016-06-07,1538000,,,http://www.redfin.com/CA/Cupertino/11528-Bianchini-Ln-95014/home/1051626,MLSListings Inc. (MLSLI),ML81581934,Coldwell Banker,N,Y,37.2996754,-122.034392,false
MLS Listing,Single Family Residential,10700 Morengo Dr,CUPERTINO,CA,95014,1450000,3,1.0,CUPERTINO,932,5500,1955,1,Garage,61,Active,,,,,999888,2006-05-01,732000.0,http://www.redfin.com/CA/Cupertino/10700-Morengo-Dr-95014/home/1326227,MLSListings Inc. (MLSLI),ML81580350,Keller Williams Realty - Cupertino,N,Y,37.3126683,-122.0046608,false
MLS Listing,Multi-Family (2-4 Unit),10271 Lockwood Dr,CUPERTINO,CA,95014,2030000,5,,CUPERTINO,2436,8498,1970,2,Garage,70,Active,,,,,2030000,,,http://www.redfin.com/CA/Cupertino/10271-Lockwood-Dr-95014/home/1415466,MLSListings Inc. (MLSLI),ML81578881,Brittain Commercial,N,Y,37.3192953,-122.0724981,false
MLS Listing,Single Family Residential,10559 Felton Way,CUPERTINO,CA,95014,2868000,4,3.5,CUPERTINO,3204,7749,2004,2,Garage,71,Active,,,,,2868000,2014-10-03,2558000.0,http://www.redfin.com/CA/Cupertino/10559-Felton-Way-95014/home/1227463,MLSListings Inc. (MLSLI),ML81578599,Intero Real Estate Services,N,Y,37.314767,-122.034313,false
MLS Listing,Townhouse,22475 Rancho Deep Cliff Dr,CUPERTINO,CA,95014,1295000,2,2.0,CUPERTINO,1983,3659,1976,2,Garage,72,Active,2016-06-18,13:30,16:30,2016-05-06,1449000,2007-07-30,1075000.0,http://www.redfin.com/CA/Cupertino/22475-Rancho-Deep-Cliff-Dr-95014/home/551261,MLSListings Inc. (MLSLI),ML81578365,Coldwell Banker,N,Y,37.310628,-122.0691246,false
MLS Listing,Single Family Residential,10613 N Stelling Rd,CUPERTINO,CA,95014,2488000,6,3.0,CUPERTINO,2859,9682,1992,2,Garage,80,Active,,,,,2488000,2012-01-24,1170000.0,http://www.redfin.com/CA/Cupertino/10613-N-Stelling-Rd-95014/home/773025,MLSListings Inc. (MLSLI),ML81577120,Amici Real Estate,N,Y,37.331765,-122.041765,false
MLS Listing,Condo/Coop,19999 Stevens Creek Blvd #109,CUPERTINO,CA,95014,934800,2,2.0,CUPERTINO,1000,1001,2003,1,Garage,91,Active,,,,2016-05-19,898000,2007-05-21,596000.0,http://www.redfin.com/CA/Cupertino/19999-Stevens-Creek-Blvd-95014/unit-109/home/845307,MLSListings Inc. (MLSLI),ML81565597,La Poll Realtors,N,Y,37.3237076,-122.0227731,false
MLS Listing,Single Family Residential,21985 Regnart Rd,CUPERTINO,CA,95014,3798000,5,4.5,CUPERTINO,4573,172189,1980,3,Garage,92,Active,,,,2016-04-14,3998000,1979-10-01,144700.0,http://www.redfin.com/CA/Cupertino/21985-Regnart-Rd-95014/home/839070,MLSListings Inc. (MLSLI),ML81565268,Campi Properties,N,Y,37.298685,-122.059135,false
MLS Listing,Single Family Residential,10487 Manzanita Ct,CUPERTINO,CA,95014,2850000,4,3.5,CUPERTINO,3350,16583,2001,3,Garage,99,Active,,,,,2658888,2010-09-17,1750000.0,http://www.redfin.com/CA/Cupertino/10487-Manzanita-Ct-95014/home/1056735,MLSListings Inc. (MLSLI),ML81564131,Keller Williams Realty - Cupertino,N,Y,37.329623,-122.074889,false
MLS Listing,Single Family Residential,21740 Rainbow Dr,CUPERTINO,CA,95014,3800000,4,5.0,CUPERTINO,4714,69696,2015,2,Garage,127,Active,,,,,3800000,2012-12-04,1050000.0,http://www.redfin.com/CA/Cupertino/21740-Rainbow-Dr-95014/home/12169993,MLSListings Inc. (MLSLI),ML81549823,Keller Williams Realty - Cupertino,N,Y,37.2974976,-122.0565766,false
MLS Listing,Single Family Residential,11041 Stevens Canyon Rd,CUPERTINO,CA,95014,2900000,2,1.0,CUPERTINO,900,852033,1944,0,,180,Active,,,,,2900000,2012-12-20,1700000.0,http://www.redfin.com/CA/Cupertino/11041-Stevens-Canyon-Rd-95014/home/12343865,MLSListings Inc. (MLSLI),ML81545259,Intero Real Estate Services,N,Y,37.308406,-122.072246,false
MLS Listing,Single Family Residential,10665 Cordova Rd,CUPERTINO,CA,95014,2650000,4,3.5,CUPERTINO,2648,10500,2015,2,Garage,186,Active,,,,,2650000,2014-03-27,875000.0,http://www.redfin.com/CA/Cupertino/Cordova-Rd-95014/home/1860306,MLSListings Inc. (MLSLI),ML81534942,KW Peninsula Estates,N,Y,37.3142587,-122.0726165,false
MLS Listing,Single Family Residential,15545 Swiss Creek Ln,CUPERTINO,CA,95014,1649999,4,3.5,CUPERTINO,3300,435164,1988,3,Garage,200,Active,,,,2016-06-05,1799000,2000-03-14,810000.0,http://www.redfin.com/CA/Cupertino/15545-Swiss-Creek-Ln-95014/home/792210,MLSListings Inc. (MLSLI),ML81533683,Coldwell Banker,N,Y,37.2974488,-122.0985615,false
Past Sale,Single Family Residential,21530 Edward Way,Cupertino,CA,95014,,4,2.0,95014,1859,,1972,,,,,,,,,,2015-06-30,1872500.0,http://www.redfin.com/CA/Cupertino/21530-Edward-Way-95014/home/1025329,,,,N,Y,37.308436,-122.050677,
Past Sale,Single Family Residential,21630 Edward Way,CUPERTINO,CA,95014,1898000,5,3.0,CUPERTINO,2412,8000,1972,2,Garage,,Sold,,,,,1898000,2015-08-28,1950000.0,http://www.redfin.com/CA/Cupertino/21630-Edward-Way-95014/home/1500057,MLSListings Inc. (MLSLI),ML81470808,Coldwell Banker,N,Y,37.308428,-122.053311,false
Past Sale,Single Family Residential,7998 Woodlark Way,CUPERTINO,CA,95014,1699000,3,3.0,CUPERTINO,1561,6505,1963,2,Garage,,Sold,,,,,1699000,2015-09-25,1745000.0,http://www.redfin.com/CA/Cupertino/7998-Woodlark-Way-95014/home/1230457,MLSListings Inc. (MLSLI),ML81499035,"Tera Properties, Inc.",N,Y,37.308442,-122.049542,false
Past Sale,Single Family Residential,1057 Colony Hills Ln,CUPERTINO,CA,95014,1738000,3,2.0,CUPERTINO,1636,11102,1961,2,Garage,,Sold,,,,2015-09-09,1800000,2015-11-27,1732500.0,http://www.redfin.com/CA/Cupertino/1057-Colony-Hills-Ln-95014/home/983735,MLSListings Inc. (MLSLI),ML81497099,The O'Halloran Group,N,Y,37.3079151,-122.0385913,false
Past Sale,Single Family Residential,21179 Orogrande Pl,CUPERTINO,CA,95014,2150000,4,2.5,CUPERTINO,2323,5388,1981,2,Garage,,Sold,,,,,2150000,2016-04-08,2080000.0,http://www.redfin.com/CA/Cupertino/21179-Orogrande-Pl-95014/home/611292,MLSListings Inc. (MLSLI),ML81551155,Smart Realty,N,Y,37.308471,-122.0429242,false
Past Sale,Single Family Residential,7514 Fallenleaf Ln,CUPERTINO,CA,95014,2098000,4,2.5,CUPERTINO,2152,9266,1959,2,Garage,,Sold,,,,,2098000,2016-04-12,2173000.0,http://www.redfin.com/CA/Cupertino/7514-Fallenleaf-Ln-95014/home/625174,MLSListings Inc. (MLSLI),ML81548447,Coldwell Banker,N,Y,37.308274,-122.036772,false
Past Sale,Single Family Residential,1071 November Dr,CUPERTINO,CA,95014,1550000,3,2.0,CUPERTINO,1190,5993,1963,2,Garage,,Sold,,,,,1550000,2016-04-01,1689000.0,http://www.redfin.com/CA/Cupertino/1071-November-Dr-95014/home/1124012,MLSListings Inc. (MLSLI),ML81562115,Intero Real Estate Services,N,Y,37.3078745,-122.0459825,false
Past Sale,Single Family Residential,1047 Colony Hills Ln,CUPERTINO,CA,95014,1850000,4,2.5,CUPERTINO,2377,10118,1961,2,Garage,,Sold,,,,,1850000,2016-06-13,2052000.0,http://www.redfin.com/CA/Cupertino/1047-Colony-Hills-Ln-95014/home/784980,MLSListings Inc. (MLSLI),ML81583663,Intero Real Estate Services,N,Y,37.3083288,-122.0388071,false
Past Sale,Single Family Residential,1179 Crestline Dr,CUPERTINO,CA,95014,1449000,3,2.0,CUPERTINO,1190,6001,1963,1,Garage,,Sold,,,,,1449000,2015-07-22,1555000.0,http://www.redfin.com/CA/Cupertino/1179-Crestline-Dr-95014/home/1155317,MLSListings Inc. (MLSLI),ML81468457,Realty World-Blue Property Group,N,Y,37.303123,-122.039642,false
Past Sale,Single Family Residential,7504 Kingsbury Pl,CUPERTINO,CA,95014,1645000,4,2.0,CUPERTINO,1876,6969,1976,2,Garage,,Sold,,,,,1645000,2016-02-29,1817000.0,http://www.redfin.com/CA/Cupertino/7504-Kingsbury-Pl-95014/home/1124044,MLSListings Inc. (MLSLI),ML81547204,Coldwell Banker,N,Y,37.302901,-122.037559,false
Past Sale,Single Family Residential,21530 Addington Ct,CUPERTINO,CA,95014,2295000,5,3.0,CUPERTINO,2919,7868,1986,3,Garage,,Sold,,,,,2295000,2015-09-16,2380000.0,http://www.redfin.com/CA/Cupertino/21530-Addington-Ct-95014/home/1567258,MLSListings Inc. (MLSLI),ML81501702,Coldwell Banker,N,Y,37.303698,-122.051538,false
Past Sale,Single Family Residential,1157 Scotland Dr,CUPERTINO,CA,95014,1848888,4,3.0,CUPERTINO,2176,6108,1963,2,Garage,,Sold,,,,,1848888,2016-05-26,2075000.0,http://www.redfin.com/CA/Cupertino/1157-Scotland-Dr-95014/home/1431237,MLSListings Inc. (MLSLI),ML81564814,Menlo Atherton Realty,N,Y,37.303772,-122.037028,false
Past Sale,Single Family Residential,7525 Newcastle Dr,CUPERTINO,CA,95014,1548000,3,2.0,CUPERTINO,1551,7228,1960,2,Garage,,Sold,,,,,1548000,2015-08-28,1668000.0,http://www.redfin.com/CA/Cupertino/7525-Newcastle-Dr-95014/home/1535480,MLSListings Inc. (MLSLI),ML81499327,Alliance Realty,N,Y,37.297904,-122.037047,false
Past Sale,Single Family Residential,1401 Aster Ln,CUPERTINO,CA,95014,1898000,4,3.0,CUPERTINO,2056,7218,1963,2,Garage,,Sold,,,,,1898000,2016-04-01,2065000.0,http://www.redfin.com/CA/Cupertino/1401-Aster-Ln-95014/home/1549816,MLSListings Inc. (MLSLI),ML81562112,Intero Real Estate Services,N,Y,37.297705,-122.040597,false
Past Sale,Single Family Residential,11677 Palm Spring Ct,CUPERTINO,CA,95014,1998000,4,3.0,CUPERTINO,2445,5227,1989,3,Garage,,Sold,,,,,1998000,2015-11-24,2150000.0,http://www.redfin.com/CA/Cupertino/11677-Palm-Spring-Ct-95014/home/1062537,MLSListings Inc. (MLSLI),ML81517229,Intero Real Estate Services,N,Y,37.2979399,-122.046467,false
Past Sale,Single Family Residential,11755 Seven Springs Pkwy,CUPERTINO,CA,95014,1998000,5,3.0,CUPERTINO,2445,4950,1991,3,Garage,,Sold,,,,2015-08-27,2158000,2015-09-25,1950000.0,http://www.redfin.com/CA/Cupertino/11755-Seven-Springs-Pkwy-95014/home/789295,MLSListings Inc. (MLSLI),ML81498270,Maxreal,N,Y,37.29613,-122.043588,false
Past Sale,Single Family Residential,7498 Barnhart Pl,CUPERTINO,CA,95014,1488000,3,2.0,CUPERTINO,1466,7000,1972,2,Garage,,Sold,,,,,1488,2016-04-22,1610000.0,http://www.redfin.com/CA/Cupertino/7498-Barnhart-Pl-95014/home/839035,MLSListings Inc. (MLSLI),ML81563210,Keller Williams Realty - Cupertino,N,Y,37.294426,-122.036178,false
Past Sale,Single Family Residential,11801 Sierra Spring Ct,CUPERTINO,CA,95014,1488000,3,2.5,CUPERTINO,1745,4000,1989,2,Garage,,Sold,,,,,1488000,2016-06-06,1750000.0,http://www.redfin.com/CA/Cupertino/11801-Sierra-Spring-Ct-95014/home/1298136,MLSListings Inc. (MLSLI),ML81583428,Deleon Realty,N,Y,37.295737,-122.041664,false
Past Sale,Multi-Family (2-4 Unit),10345 El Prado Way,CUPERTINO,CA,95014,2050000,5,,CUPERTINO,2586,10576,1971,1,Garage,,Sold,,,,,2050000,2016-04-26,2030000.0,http://www.redfin.com/CA/Cupertino/10345-El-Prado-Way-95014/home/568362,MLSListings Inc. (MLSLI),ML81548586,Brittain Commercial,N,Y,37.318212,-122.075245,false
Past Sale,Single Family Residential,10365 Sterling Blvd,CUPERTINO,CA,95014,1328000,3,2.0,CUPERTINO,1127,6436,1954,1,Garage,,Sold,,,,,1328000,2016-06-10,1335000.0,http://www.redfin.com/CA/Cupertino/10365-Sterling-Blvd-95014/home/801608,MLSListings Inc. (MLSLI),ML81579916,Intero Real Estate Services,N,Y,37.3177343,-121.9976063,false
Past Sale,Single Family Residential,11529 Murano Cir,CUPERTINO,CA,95014,1599999,4,4.0,CUPERTINO,2036,1742,2005,2,Garage,,Sold,,,,2015-04-28,1699999,2015-07-14,1610000.0,http://www.redfin.com/CA/Cupertino/11529-Murano-Cir-95014/home/1261506,MLSListings Inc. (MLSLI),ML81461315,"Liu-Tyng Lin, Broker",N,Y,37.2996576,-122.034151,false
Past Sale,Single Family Residential,7733 Rainbow Dr,CUPERTINO,CA,95014,1388888,3,2.0,CUPERTINO,1227,8400,1962,2,Garage,,Sold,,,,,1388888,2015-09-04,1515000.0,http://www.redfin.com/CA/Cupertino/7733-Rainbow-Dr-95014/home/983747,MLSListings Inc. (MLSLI),ML81499508,Coldwell Banker,N,Y,37.300956,-122.040949,false
Past Sale,Single Family Residential,20582 Murano Cir,CUPERTINO,CA,95014,1498000,4,4.0,CUPERTINO,1948,1764,2005,2,Garage,,Sold,,,,,1498000,2015-10-16,1595000.0,http://www.redfin.com/CA/Cupertino/20582-Murano-Cir-95014/home/1347482,MLSListings Inc. (MLSLI),ML81513020,Haylen Group,N,Y,37.3001397,-122.0333166,false
Past Sale,Single Family Residential,11512 Murano Cir,CUPERTINO,CA,95014,1498000,3,2.5,CUPERTINO,1788,1742,2005,2,Garage,,Sold,,,,,1498000,2016-01-08,1520000.0,http://www.redfin.com/CA/Cupertino/11512-Murano-Cir-95014/home/1051552,MLSListings Inc. (MLSLI),ML81518820,Cupertino Properties,N,Y,37.3000458,-122.0338763,false
Past Sale,Single Family Residential,20596 Murano Cir,CUPERTINO,CA,95014,1569800,4,4.0,CUPERTINO,2003,1775,2005,2,Garage,,Sold,,,,,1569800,2016-01-19,1625000.0,http://www.redfin.com/CA/Cupertino/20596-Murano-Cir-95014/home/1760944,MLSListings Inc. (MLSLI),ML81534124,"Allegro Real Estate Investments, Inc.",N,Y,37.2995846,-122.0335907,false
Past Sale,Single Family Residential,7442 Stanford Pl,CUPERTINO,CA,95014,1398888,3,2.0,CUPERTINO,1190,6461,1960,2,Garage,,Sold,,,,,1398888,2015-11-10,1620000.0,http://www.redfin.com/CA/Cupertino/7442-Stanford-Pl-95014/home/1418172,MLSListings Inc. (MLSLI),ML81516860,Intero Real Estate Services,N,Y,37.306738,-122.035952,false
Past Sale,Single Family Residential,1077 Milky Way,CUPERTINO,CA,95014,1988000,2,2.0,CUPERTINO,2381,9657,1983,2,Garage,,Sold,,,,,1988000,2016-06-09,1875000.0,http://www.redfin.com/CA/Cupertino/1077-Milky-Way-95014/home/746343,MLSListings Inc. (MLSLI),ML81580839,Alain Pinel Realtors,N,Y,37.306801,-122.045553,false
Past Sale,Single Family Residential,6139 Shadygrove,CUPERTINO,CA,95014,1188000,3,2.0,CUPERTINO,1220,6254,1960,2,Garage,,Sold,,,,,1188,2015-06-25,1450000.0,http://www.redfin.com/CA/Cupertino/6139-Shadygrove-Dr-95014/home/797008,MLSListings Inc. (MLSLI),ML81464882,Coldwell Banker,N,Y,37.314374,-122.010055,false
Past Sale,Single Family Residential,10558 Sterling Blvd,CUPERTINO,CA,95014,1948800,4,3.5,CUPERTINO,2435,8623,2016,2,Garage,,Sold,,,,,1948800,2016-04-05,2138501.0,http://www.redfin.com/CA/Cupertino/10558-Sterling-Blvd-95014/home/1456291,MLSListings Inc. (MLSLI),ML81551002,Intero Real Estate Services,N,Y,37.314261,-121.996789,false
Past Sale,Townhouse,8139 Park Villa Cir,CUPERTINO,CA,95014,1290000,3,2.0,CUPERTINO,1224,1604,1972,2,Garage,,Sold,,,,,1290000,2016-02-02,1290000.0,http://www.redfin.com/CA/Cupertino/8139-Park-Villa-Cir-95014/home/1739897,MLSListings Inc. (MLSLI),ML81548174,"Elena Chaldo, Broker",N,Y,37.3139821,-122.0517497,false
Past Sale,Single Family Residential,845 Lonna Ln,CUPERTINO,CA,95014,1698000,4,2.0,CUPERTINO,1586,7082,1959,2,Garage,,Sold,,,,,1698000,2016-06-02,1700000.0,http://www.redfin.com/CA/Cupertino/845-Lonna-Ln-95014/home/1739982,MLSListings Inc. (MLSLI),ML81582471,KW Bay Area Estates,N,Y,37.314551,-122.036385,false
Past Sale,Single Family Residential,10611 Johansen Dr,CUPERTINO,CA,95014,1599000,3,2.0,CUPERTINO,1425,7021,1953,1,Garage,,Sold,,,,,1599000,2016-06-02,1755000.0,http://www.redfin.com/CA/Cupertino/10611-Johansen-Dr-95014/home/1567721,MLSListings Inc. (MLSLI),ML81582357,Coldwell Banker,N,Y,37.314224,-122.006986,false
Past Sale,Single Family Residential,20885 Jollyman Ln,CUPERTINO,CA,95014,2250000,4,3.5,CUPERTINO,3309,6643,1986,3,Garage,,Sold,,,,,2250000,2015-07-30,2300000.0,http://www.redfin.com/CA/Cupertino/20885-Jollyman-Ln-95014/home/784620,MLSListings Inc. (MLSLI),ML81470585,Coldwell Banker,N,Y,37.312029,-122.039783,false
Past Sale,Single Family Residential,21403 Shannon Ct,CUPERTINO,CA,95014,1900000,4,3.0,CUPERTINO,2054,8280,1969,2,Garage,,Sold,,,,,1700000,2015-08-11,1900000.0,http://www.redfin.com/CA/Cupertino/21403-Shannon-Ct-95014/home/1119183,MLSListings Inc. (MLSLI),ML81444590,Wagner Real Estate,N,Y,37.312257,-122.0485408,false
Past Sale,Single Family Residential,8077 Hyannisport Dr,CUPERTINO,CA,95014,1899888,5,2.5,CUPERTINO,2397,6100,1963,2,Garage,,Sold,,,,,1798888,2016-01-15,1800000.0,http://www.redfin.com/CA/Cupertino/8077-Hyannisport-Dr-95014/home/1790289,MLSListings Inc. (MLSLI),ML81465280,FCC Realty Group,N,Y,37.31219,-122.051444,false
Past Sale,Single Family Residential,10725 Martinwood Way,Cupertino,CA,95014,,3,2.0,95014,1549,,1962,,,,,,,,,,2016-01-07,1405000.0,http://www.redfin.com/CA/Cupertino/10725-Martinwood-Way-95014/home/1697095,,,,N,Y,37.312227,-122.028425,
Past Sale,Single Family Residential,942 Fort Baker Dr,Cupertino,CA,95014,,4,2.0,95014,1880,,1963,,,,,,,,,,2015-06-17,1840000.0,http://www.redfin.com/CA/Cupertino/942-Fort-Baker-Dr-95014/home/1106285,,,,N,Y,37.312315,-122.054681,
Past Sale,Single Family Residential,19971 Lindenbrook Ln,CUPERTINO,CA,95014,1499000,5,3.0,CUPERTINO,2236,6970,1958,2,Garage,,Sold,,,,,1499000,2015-08-19,1468000.0,http://www.redfin.com/CA/Cupertino/19971-Lindenbrook-Ln-95014/home/649980,MLSListings Inc. (MLSLI),ML81470853,Mainstream Real Estate Group Inc.,N,Y,37.3123467,-122.022564,false
Past Sale,Single Family Residential,19899 Lindenbrook Ln,Cupertino,CA,95014,,3,2.0,95014,1176,,1955,,,,,,,,,,2015-06-18,106500.0,http://www.redfin.com/CA/Cupertino/19899-Lindenbrook-Ln-95014/home/1264132,,,,N,Y,37.312029,-122.021412,
Past Sale,Single Family Residential,10711 Gascoigne Dr,CUPERTINO,CA,95014,1980000,5,4.0,CUPERTINO,2128,5776,2015,2,Garage,,Sold,,,,,1980000,2016-06-07,2150000.0,http://www.redfin.com/CA/Cupertino/10711-Gascoigne-Dr-95014/home/692878,MLSListings Inc. (MLSLI),ML81577457,Maxreal,N,Y,37.312017,-122.000597,false
Past Sale,Single Family Residential,11186 Linda Vista Dr,CUPERTINO,CA,95014,1799000,4,2.5,CUPERTINO,2255,7630,1962,2,Garage,,Sold,,,,,1799000,2016-04-08,1970000.0,http://www.redfin.com/CA/Cupertino/11186-Linda-Vista-Dr-95014/home/1700561,MLSListings Inc. (MLSLI),ML81564349,Coldwell Banker,N,Y,37.306182,-122.057523,false
Past Sale,Single Family Residential,21597 Flintshire St,Cupertino,CA,95014,,5,3.0,95014,2412,,1973,,,,,,,,,,2016-01-13,2280000.0,http://www.redfin.com/CA/Cupertino/21597-Flintshire-St-95014/home/780827,,,,N,Y,37.306205,-122.052324,
Past Sale,Single Family Residential,11238 Bubb Rd,CUPERTINO,CA,95014,1799950,5,3.0,CUPERTINO,2724,7000,1973,2,Garage,,Sold,,,,2015-05-19,1999888,2015-06-23,1790000.0,http://www.redfin.com/CA/Cupertino/11238-Bubb-Rd-95014/home/1332161,MLSListings Inc. (MLSLI),ML81462119,Coldwell Banker,N,Y,37.304729,-122.05015,false
Past Sale,Single Family Residential,1049 Pennington Ln,CUPERTINO,CA,95014,1289000,3,2.0,CUPERTINO,1126,5778,1963,2,Garage,,Sold,,,,,1289000,2015-08-27,1520000.0,http://www.redfin.com/CA/Cupertino/1049-Pennington-Ln-95014/home/1709425,MLSListings Inc. (MLSLI),ML81498422,Coldwell Banker,N,Y,37.308692,-122.049792,false
Past Sale,Single Family Residential,7409 Fallenleaf Ln,CUPERTINO,CA,95014,1898000,3,2.0,CUPERTINO,1965,10235,1959,2,Garage,,Sold,,,,,1898000,2016-03-22,1878000.0,http://www.redfin.com/CA/Cupertino/7409-Fallenleaf-Ln-95014/home/1048902,MLSListings Inc. (MLSLI),ML81549262,Coldwell Banker,N,Y,37.308741,-122.034421,false
Past Sale,Single Family Residential,11500 Charsan Ln,CUPERTINO,CA,95014,2199000,5,3.0,CUPERTINO,3468,7119,1988,3,Garage,,Sold,,,,,2199000,2016-01-14,2326500.0,http://www.redfin.com/CA/Cupertino/11500-Charsan-Ln-95014/home/1183341,MLSListings Inc. (MLSLI),ML81533947,Coldwell Banker,N,Y,37.301133,-122.044411,false
Past Sale,Single Family Residential,7975 Rainbow Dr,CUPERTINO,CA,95014,1648000,3,2.0,CUPERTINO,1790,7021,1963,2,Garage,,Sold,,,,,1648000,2016-04-11,1765000.0,http://www.redfin.com/CA/Cupertino/7975-Rainbow-Dr-95014/home/1790384,MLSListings Inc. (MLSLI),ML81563030,Sereno Group,N,Y,37.301207,-122.04857,false
Past Sale,Townhouse,20730 Garden Crest Ct,CUPERTINO,CA,95014,1108000,3,2.5,CUPERTINO,1591,2944,1981,2,Garage,,Sold,,,,,1088000,2016-03-18,1300000.0,http://www.redfin.com/CA/Cupertino/20730-Garden-Crest-Ct-95014/home/1684163,MLSListings Inc. (MLSLI),ML81521941,Amici Real Estate,N,Y,37.3012079,-122.0361492,false
Past Sale,Single Family Residential,21506 Monrovia St,CUPERTINO,CA,95014,1788000,4,2.0,CUPERTINO,1728,7840,1966,2,Garage,,Sold,,,,,1788000,2016-06-07,2080000.0,http://www.redfin.com/CA/Cupertino/21506-Monrovia-St-95014/home/1233967,MLSListings Inc. (MLSLI),ML81582415,KW Silicon City,N,Y,37.301487,-122.050618,false
Past Sale,Single Family Residential,18770 Hanna Dr,CUPERTINO,CA,95014,1999888,5,3.5,CUPERTINO,3048,5100,1998,3,Garage,,Sold,,,,,1999888,2015-07-07,2150512.0,http://www.redfin.com/CA/Cupertino/18770-Hanna-Dr-95014/home/650284,MLSListings Inc. (MLSLI),ML81463700,Coldwell Banker,N,Y,37.310994,-122.000371,false
Past Sale,Single Family Residential,10797 Brookwell Drive Dr,CUPERTINO,CA,95014,1375000,3,1.0,CUPERTINO,1080,6007,1955,2,Garage,,Sold,,,,,1375000,2016-03-15,1500000.0,http://www.redfin.com/CA/Cupertino/10797-Brookwell-Dr-95014/home/1365059,MLSListings Inc. (MLSLI),ML81562580,Intero Real Estate Services,N,Y,37.311161,-122.019443,false
Past Sale,Single Family Residential,22393 Riverside Dr,CUPERTINO,CA,95014,1928000,4,2.5,CUPERTINO,2212,7501,1964,2,Garage,,Sold,,,,,1928000,2016-06-08,2001000.0,http://www.redfin.com/CA/Cupertino/22393-Riverside-Dr-95014/home/780403,MLSListings Inc. (MLSLI),ML81582403,Intero Real Estate Services,N,Y,37.311017,-122.067382,false
Past Sale,Single Family Residential,10883 Leavesley Pl,CUPERTINO,CA,95014,1598000,3,2.0,CUPERTINO,1888,8960,1969,2,Garage,,Sold,,,,,1598000,2016-03-10,1968000.0,http://www.redfin.com/CA/Cupertino/10883-Leavesley-Pl-95014/home/1790296,MLSListings Inc. (MLSLI),ML81549304,Coldwell Banker,N,Y,37.3101709,-122.057882,false
Past Sale,Single Family Residential,22149 Rae Ln,CUPERTINO,CA,95014,2988000,5,3.5,CUPERTINO,4026,10388,1985,3,Garage,,Sold,,,,,2988000,2016-06-03,3049200.0,http://www.redfin.com/CA/Cupertino/22149-Rae-Ln-95014/home/1614054,MLSListings Inc. (MLSLI),ML81550979,Coldwell Banker,N,Y,37.312402,-122.061409,false
Past Sale,Single Family Residential,7429 Stanford Pl,CUPERTINO,CA,95014,1468000,3,2.0,CUPERTINO,1190,6438,1960,2,Garage,,Sold,,,,,1468000,2015-06-23,1732500.0,http://www.redfin.com/CA/Cupertino/7429-Stanford-Pl-95014/home/611274,MLSListings Inc. (MLSLI),ML81464930,Intero Real Estate Services,N,Y,37.30721,-122.035447,false
Past Sale,Single Family Residential,1052 West Hill Ct,CUPERTINO,CA,95014,1888000,4,3.0,CUPERTINO,2766,7900,1987,2,Garage,,Sold,,,,2015-06-24,1999000,2015-09-15,1750000.0,http://www.redfin.com/CA/Cupertino/1052-W-Hill-Ct-95014/home/786528,MLSListings Inc. (MLSLI),ML81467098,Coldwell Banker,N,Y,37.307186,-122.040237,false
Past Sale,Single Family Residential,11103 Wilkinson Ave,CUPERTINO,CA,95014,1998000,6,3.5,CUPERTINO,2840,7714,1966,2,Garage,,Sold,,,,,1998000,2015-12-23,2280000.0,http://www.redfin.com/CA/Cupertino/11103-Wilkinson-Ave-95014/home/1178645,MLSListings Inc. (MLSLI),ML81521021,Realty One Group - World Properties,N,Y,37.307279,-122.056026,false
Past Sale,Single Family Residential,10529 Johnson Ave,CUPERTINO,CA,95014,1068000,3,1.0,CUPERTINO,1048,5587,1954,0,,,Sold,,,,,1068000,2015-07-20,1390000.0,http://www.redfin.com/CA/Cupertino/10529-Johnson-Ave-95014/home/1684436,MLSListings Inc. (MLSLI),ML81469589,Maxreal,N,Y,37.314816,-121.999225,false
Past Sale,Single Family Residential,736 Miller Ave,CUPERTINO,CA,95014,1350000,4,2.0,CUPERTINO,1516,6000,1961,1,Garage,,Sold,,,,2015-07-14,1488888,2015-07-17,1350000.0,http://www.redfin.com/CA/Cupertino/736-Miller-Ave-95014/home/1790645,MLSListings Inc. (MLSLI),ML81463464,New Star Realty Silicon Valley,N,Y,37.314812,-122.012973,false
Past Sale,Single Family Residential,10518 Gascoigne Dr,CUPERTINO,CA,95014,1098000,3,2.0,CUPERTINO,1127,6266,1954,1,Garage,,Sold,,,,,1098000,2015-06-29,1408000.0,http://www.redfin.com/CA/Cupertino/10518-Gascoigne-Dr-95014/home/1345079,MLSListings Inc. (MLSLI),ML81467158,Maxreal,N,Y,37.315034,-121.997689,false
Past Sale,Townhouse,21087 Red Fir Ct,CUPERTINO,CA,95014,888888,2,1.0,CUPERTINO,914,1600,1971,0,,,Sold,,,,,888888,2015-12-23,921000.0,http://www.redfin.com/CA/Cupertino/21087-Red-Fir-Ct-95014/home/625155,MLSListings Inc. (MLSLI),ML81521461,Century 21 M&M and Associates,N,Y,37.315052,-122.042993,false
Past Sale,Single Family Residential,20392 Silverado Ave,CUPERTINO,CA,95014,1488000,3,1.5,CUPERTINO,1208,9905,1954,2,Garage,,Sold,,,,,1488000,2016-04-19,1801000.0,http://www.redfin.com/CA/Cupertino/20392-Silverado-Ave-95014/home/1062585,MLSListings Inc. (MLSLI),ML81562040,"Realty World-Kevin F. Garvey, Broker",N,Y,37.314994,-122.030372,false
Past Sale,Single Family Residential,19031 Barnhart Ave,CUPERTINO,CA,95014,1198000,3,2.0,CUPERTINO,1102,5355,1953,1,,,Sold,,,,,1198000,2015-12-24,1338000.0,http://www.redfin.com/CA/Cupertino/19031-Barnhart-Ave-95014/home/1493923,MLSListings Inc. (MLSLI),ML81534615,Keller Williams Palo Alto,N,Y,37.315804,-122.00505,false
Past Sale,Single Family Residential,10518 Phil Pl,CUPERTINO,CA,95014,1688000,4,3.0,CUPERTINO,2736,7884,1905,2,Garage,,Sold,,,,,1688000,2016-04-26,1688000.0,http://www.redfin.com/CA/Cupertino/10518-Phil-Pl-95014/home/1065835,MLSListings Inc. (MLSLI),ML81550431,"Richard Tygerson, Broker",N,Y,37.3157246,-122.0113987,false
Past Sale,Townhouse,8083 Park Villa Cir,CUPERTINO,CA,95014,898888,2,2.0,CUPERTINO,942,1800,1972,2,Garage,,Sold,,,,,898888,2016-05-13,1100000.0,http://www.redfin.com/CA/Cupertino/8083-Park-Villa-Cir-95014/home/1313574,MLSListings Inc. (MLSLI),ML81581364,Intero Real Estate Services,N,Y,37.315362,-122.052562,false
Past Sale,Single Family Residential,10510 Barnhart Ct,CUPERTINO,CA,95014,1998000,5,3.0,CUPERTINO,3134,6546,1998,3,Garage,,Sold,,,,,1998000,2015-09-04,2138400.0,http://www.redfin.com/CA/Cupertino/10510-Barnhart-Ct-95014/home/796004,MLSListings Inc. (MLSLI),ML81499378,Giant Realty Inc.,N,Y,37.3154002,-122.0063664,false
Past Sale,Single Family Residential,11646 Cedar Spring Ct,CUPERTINO,CA,95014,1998000,4,3.0,CUPERTINO,2334,5000,1989,3,Garage,,Sold,,,,,1998000,2016-03-04,2268000.0,http://www.redfin.com/CA/Cupertino/11646-Cedar-Spring-Ct-95014/home/788640,MLSListings Inc. (MLSLI),ML81550522,Coldwell Banker,N,Y,37.298496,-122.045869,false
Past Sale,Townhouse,7373 Wildflower Way,CUPERTINO,CA,95014,1395000,5,2.5,CUPERTINO,2682,,2008,2,Garage,,Sold,,,,2016-04-27,1495000,2016-06-01,1408000.0,http://www.redfin.com/CA/Cupertino/7373-Wildflower-Way-95014/home/39769396,MLSListings Inc. (MLSLI),ML81579903,Pacific Union International,N,Y,37.298551,-122.033414,false
Past Sale,Single Family Residential,11744 Ridge Creek Ct,CUPERTINO,CA,95014,1998000,4,3.0,CUPERTINO,2445,5000,1993,3,Garage,,Sold,,,,,1998000,2015-09-04,2230000.0,http://www.redfin.com/CA/Cupertino/11744-Ridge-Creek-Ct-95014/home/1493764,MLSListings Inc. (MLSLI),ML81484931,Alain Pinel Realtors,N,Y,37.297225,-122.044985,false
Past Sale,Single Family Residential,1469 Primrose Way,CUPERTINO,CA,95014,1599000,3,2.0,CUPERTINO,1551,6314,1960,2,Garage,,Sold,,,,,1599000,2015-09-12,1700000.0,http://www.redfin.com/CA/Cupertino/1469-Primrose-Way-95014/home/1565930,MLSListings Inc. (MLSLI),ML81499532,Intero Real Estate Services,N,Y,37.297359,-122.036249,false
Past Sale,Single Family Residential,1158 Kentwood Ave,CUPERTINO,CA,95014,1275000,3,2.0,CUPERTINO,1230,6032,1961,2,Garage,,Sold,,,,,1275000,2016-01-14,1507000.0,http://www.redfin.com/CA/Cupertino/1158-Kentwood-Ave-95014/home/785011,MLSListings Inc. (MLSLI),ML81533864,Fireside Realty,N,Y,37.304392,-122.034406,false
Past Sale,Single Family Residential,7573 Prospect Rd,CUPERTINO,CA,95014,1499000,3,2.5,CUPERTINO,1701,6079,1968,2,Garage,,Sold,,,,,1499000,2015-10-30,1500000.0,http://www.redfin.com/CA/Cupertino/7573-Prospect-Rd-95014/home/1451263,MLSListings Inc. (MLSLI),ML81516632,RE/MAX Santa Clara Valley,N,Y,37.2939239,-122.037989,false
Past Sale,Single Family Residential,1697 Galway Dr,CUPERTINO,CA,95014,1890000,4,3.0,CUPERTINO,2194,6300,1968,2,Garage,,Sold,,,,,1890000,2016-05-27,2060000.0,http://www.redfin.com/CA/Cupertino/1697-Galway-Dr-95014/home/788029,MLSListings Inc. (MLSLI),ML81581126,Coldwell Banker,N,Y,37.293918,-122.037116,false
Past Sale,Single Family Residential,18832 Tuggle Ave,CUPERTINO,CA,95014,1998000,4,3.5,CUPERTINO,2255,6158,2015,2,Garage,,Sold,,,,,1998000,2015-09-15,2190000.0,http://www.redfin.com/CA/Cupertino/18832-Tuggle-Ave-95014/home/796764,MLSListings Inc. (MLSLI),ML81501647,Century 21 M&M and Associates,N,Y,37.31376,-122.001447,false
Past Sale,Single Family Residential,854 S Stelling Rd,CUPERTINO,CA,95014,1488000,4,2.0,CUPERTINO,1682,9738,1982,2,Garage,,Sold,,,,,1488000,2015-11-30,1725000.0,http://www.redfin.com/CA/Cupertino/854-S-Stelling-Rd-95014/home/784285,MLSListings Inc. (MLSLI),ML81517906,Coldwell Banker,N,Y,37.313636,-122.041093,false
Past Sale,Single Family Residential,10584 Johnson Ave,CUPERTINO,CA,95014,999000,3,1.0,CUPERTINO,1048,5356,1954,0,,,Sold,,,,,999000,2016-01-13,1320000.0,http://www.redfin.com/CA/Cupertino/10584-Johnson-Ave-95014/home/796300,MLSListings Inc. (MLSLI),ML81534362,KW Bay Area Estates,N,Y,37.313773,-121.999068,false
Past Sale,Single Family Residential,10647 S Blaney Ave,CUPERTINO,CA,95014,1590000,3,2.0,CUPERTINO,1564,7490,1959,2,Garage,,Sold,,,,,1590000,2016-05-25,1735000.0,http://www.redfin.com/CA/Cupertino/10647-S-Blaney-Ave-95014/home/1714617,MLSListings Inc. (MLSLI),ML81579782,Coldwell Banker,N,Y,37.313756,-122.023459,false
Past Sale,Single Family Residential,11126 Linda Vista Dr,CUPERTINO,CA,95014,1880000,4,2.5,CUPERTINO,1890,7700,1962,2,Garage,,Sold,,,,,1880000,2015-08-07,1962500.0,http://www.redfin.com/CA/Cupertino/11126-Linda-Vista-Dr-95014/home/780642,MLSListings Inc. (MLSLI),ML81471826,"Joanna Zheng, Broker",N,Y,37.3066091,-122.058876,false
Past Sale,Single Family Residential,10786 Willowbrook Way,CUPERTINO,CA,95014,1698000,4,2.0,CUPERTINO,1272,9250,1955,2,Garage,,Sold,,,,,1698000,2016-03-29,1700000.0,http://www.redfin.com/CA/Cupertino/10786-Willowbrook-Way-95014/home/789591,MLSListings Inc. (MLSLI),ML81548365,Intero Real Estate Services,N,Y,37.311499,-122.021046,false
Past Sale,Single Family Residential,20378 Gillick Way,CUPERTINO,CA,95014,1680000,4,2.0,CUPERTINO,1500,7420,1963,2,Garage,,Sold,,,,,1680000,2015-07-08,1710000.0,http://www.redfin.com/CA/Cupertino/20378-Gillick-Way-95014/home/791767,MLSListings Inc. (MLSLI),ML81466768,Amici Real Estate,N,Y,37.3124552,-122.0301176,false
Past Sale,Single Family Residential,18601 Starrett Ct,CUPERTINO,CA,95014,1888000,4,3.0,CUPERTINO,1877,5100,2015,2,Garage,,Sold,,,,2015-06-26,1988000,2015-08-10,1875000.0,http://www.redfin.com/CA/Cupertino/18601-Starrett-Ct-95014/home/1065800,MLSListings Inc. (MLSLI),ML81462409,Maxreal,N,Y,37.316118,-121.9970757,false
Past Sale,Single Family Residential,20947 Fairwoods Ct,CUPERTINO,CA,95014,2388000,4,2.5,CUPERTINO,3068,8712,1988,3,Garage,,Sold,,,,,2388000,2015-08-06,2400000.0,http://www.redfin.com/CA/Cupertino/20947-Fairwoods-Ct-95014/home/746300,MLSListings Inc. (MLSLI),ML81470483,Intero Real Estate Services,N,Y,37.316091,-122.040268,false
Past Sale,Single Family Residential,19042 Tilson Ave,CUPERTINO,CA,95014,3095000,7,5.0,CUPERTINO,4367,10725,2016,2,Garage,,Sold,,,,,3095000,2016-01-19,3095000.0,http://www.redfin.com/CA/Cupertino/19042-Tilson-Ave-95014/home/1356046,MLSListings Inc. (MLSLI),ML81547581,U16818 Financial Services,N,Y,37.316159,-122.005202,false
Past Sale,Single Family Residential,21662 Columbus Ave,CUPERTINO,CA,95014,1949000,4,2.0,CUPERTINO,2197,8021,1966,2,Garage,,Sold,,,,,1949000,2016-05-23,2158000.0,http://www.redfin.com/CA/Cupertino/21662-Columbus-Ave-95014/home/1200743,MLSListings Inc. (MLSLI),ML81581125,Coldwell Banker,N,Y,37.307677,-122.053291,false
Past Sale,Single Family Residential,10860 Johnson Ave,CUPERTINO,CA,95014,1498000,4,3.5,CUPERTINO,2808,7260,2015,2,Garage,,Sold,,,,,1498000,2015-08-31,2100000.0,http://www.redfin.com/CA/Cupertino/10860-Johnson-Ave-95014/home/872159,MLSListings Inc. (MLSLI),ML81486053,Keystone Realtors,N,Y,37.310453,-122.002602,false
Past Sale,Single Family Residential,10835 Dryden Ave,CUPERTINO,CA,95014,2198000,4,2.5,CUPERTINO,2486,7751,1968,2,Garage,,Sold,,,,,2198000,2015-07-10,2398000.0,http://www.redfin.com/CA/Cupertino/10835-Dryden-Ave-95014/home/1313581,MLSListings Inc. (MLSLI),ML81468451,Coldwell Banker,N,Y,37.310733,-122.05888,false
Past Sale,Single Family Residential,18940 Newsom Ave,Cupertino,CA,95014,,3,2.0,95014,2338,,2007,,,,,,,,,,2015-10-01,720000.0,http://www.redfin.com/CA/Cupertino/18940-Newsom-Ave-95014/home/713927,,,,N,Y,37.310656,-122.003894,
Past Sale,Single Family Residential,7508 Dumas Dr,CUPERTINO,CA,95014,1499000,3,2.0,CUPERTINO,1265,6050,1959,2,Garage,,Sold,,,,,1499000,2016-04-14,1535000.0,http://www.redfin.com/CA/Cupertino/7508-Dumas-Dr-95014/home/1284736,MLSListings Inc. (MLSLI),ML81550050,CSR Real Estate Services,N,Y,37.310552,-122.036318,false
Past Sale,Single Family Residential,1012 November Dr,CUPERTINO,CA,95014,1500000,3,2.0,CUPERTINO,1552,6534,1962,2,Garage,,Sold,,,,,1500000,2015-12-03,1680000.0,http://www.redfin.com/CA/Cupertino/1012-November-Dr-95014/home/1726409,MLSListings Inc. (MLSLI),ML81522111,Intero Real Estate Services,N,Y,37.3105203,-122.0465845,false
Past Sale,Single Family Residential,7425 Heatherwood Dr,CUPERTINO,CA,95014,1498000,3,2.0,CUPERTINO,1692,9473,1959,2,Garage,,Sold,,,,,1498000,2015-12-29,1775000.0,http://www.redfin.com/CA/Cupertino/7425-Heatherwood-Dr-95014/home/1250528,MLSListings Inc. (MLSLI),ML81520367,RE/MAX Real Estate Services,N,Y,37.309505,-122.034733,false
Past Sale,Single Family Residential,10934 Dryden Ave,CUPERTINO,CA,95014,2198000,5,2.5,CUPERTINO,2300,9500,1968,2,Garage,,Sold,,,,,2198000,2016-03-25,2450000.0,http://www.redfin.com/CA/Cupertino/10934-Dryden-Ave-95014/home/780610,MLSListings Inc. (MLSLI),ML81550725,Berkshire Hathaway HomeServices DrysdaleProperties,N,Y,37.309469,-122.058283,false
Past Sale,Single Family Residential,10954 Stevens Canyon Rd,CUPERTINO,CA,95014,2399000,4,3.5,CUPERTINO,3306,9553,2005,3,Garage,,Sold,,,,,2399000,2016-03-28,2350000.0,http://www.redfin.com/CA/Cupertino/10954-Stevens-Canyon-Rd-95014/home/1381432,MLSListings Inc. (MLSLI),ML81562069,Coldwell Banker,N,Y,37.3095716,-122.0702702,false
Past Sale,Single Family Residential,7667 Echo Hill Ct,CUPERTINO,CA,95014,1999000,4,2.5,CUPERTINO,2792,7800,1987,2,Garage,,Sold,,,,,1999000,2016-04-15,1966197.0,http://www.redfin.com/CA/Cupertino/7667-Echo-Hill-Ct-95014/home/1605363,MLSListings Inc. (MLSLI),ML81549256,Coldwell Banker,N,Y,37.3034147,-122.0407536,false
Past Sale,Single Family Residential,22090 Lindy Ln,CUPERTINO,CA,95014,3975000,4,4.0,CUPERTINO,6084,87881,1981,3,Garage,,Sold,,,,2015-11-03,4480000,2016-05-06,3300000.0,http://www.redfin.com/CA/Cupertino/22090-Lindy-Ln-95014/home/926364,MLSListings Inc. (MLSLI),ML81513650,Alain Pinel Realtors,N,Y,37.303064,-122.062794,false
Past Sale,Single Family Residential,868 Candlewood Dr,CUPERTINO,CA,95014,1398000,3,2.0,CUPERTINO,1201,5663,1960,2,Garage,,Sold,,,,,1398000,2015-07-16,1629000.0,http://www.redfin.com/CA/Cupertino/868-Candlewood-Dr-95014/home/1200854,MLSListings Inc. (MLSLI),ML81471042,Belveal Properties,N,Y,37.312937,-122.014117,false
Past Sale,Single Family Residential,918 Liberty Ct,CUPERTINO,CA,95014,2118000,4,3.0,CUPERTINO,2340,6293,1963,2,Garage,,Sold,,,,2015-06-17,2188000,2015-09-01,1970000.0,http://www.redfin.com/CA/Cupertino/918-Liberty-Ct-95014/home/88575551,MLSListings Inc. (MLSLI),ML81470770,"Outlook Realty Group, Inc.",N,Y,37.3129045,-122.0513418,false
Past Sale,Single Family Residential,894 Brookgrove Ln,CUPERTINO,CA,95014,1588000,4,2.0,CUPERTINO,1432,6136,1960,2,Garage,,Sold,,,,,1588000,2016-05-27,1700000.0,http://www.redfin.com/CA/Cupertino/894-Brookgrove-Ln-95014/home/796040,MLSListings Inc. (MLSLI),ML81584863,Coldwell Banker,N,Y,37.312957,-122.009215,false
Past Sale,Condo/Coop,10688 Stevens Canyon Rd,Cupertino,CA,95014,,3,2.0,95014,2097,,2007,,,,,,,,,,2015-12-31,1580000.0,http://www.redfin.com/CA/Cupertino/10688-Stevens-Canyon-Rd-95014/home/12180433,,,,N,Y,37.3130085,-122.0685641,
Past Sale,Single Family Residential,7875 Creekline Dr,CUPERTINO,CA,95014,1800000,5,3.0,CUPERTINO,2494,6331,1986,3,Garage,,Sold,,,,2015-05-29,1980000,2015-07-06,1850000.0,http://www.redfin.com/CA/Cupertino/7875-Creekline-Dr-95014/home/785975,MLSListings Inc. (MLSLI),ML81466572,"Elizabeth Tang, Broker",N,Y,37.309206,-122.045649,false
Past Sale,Single Family Residential,21538 Rosario Ave,Cupertino,CA,95014,,3,2.0,95014,1738,,1972,,,,,,,,,,2015-06-19,1580000.0,http://www.redfin.com/CA/Cupertino/21538-Rosario-Ave-95014/home/1683917,,,,N,Y,37.30915,-122.050933,
Past Sale,Single Family Residential,7504 Heatherwood Dr,CUPERTINO,CA,95014,1885000,3,3.0,CUPERTINO,2020,9319,1959,2,Garage,,Sold,,,,,1885000,2016-04-01,1960000.0,http://www.redfin.com/CA/Cupertino/7504-Heatherwood-Dr-95014/home/1754960,MLSListings Inc. (MLSLI),ML81562114,Alain Pinel Realtors,N,Y,37.3090557,-122.036507,false
Past Sale,Single Family Residential,1102 Milky Way,CUPERTINO,CA,95014,1599000,3,2.0,CUPERTINO,1421,6000,1960,2,Garage,,Sold,,,,,1599000,2015-08-28,1530000.0,http://www.redfin.com/CA/Cupertino/1102-Milky-Way-95014/home/787032,MLSListings Inc. (MLSLI),ML81484376,Maxim Properties,N,Y,37.305565,-122.044391,false
Past Sale,Single Family Residential,1119 Kentwood Ave,CUPERTINO,CA,95014,1499000,3,2.0,CUPERTINO,1126,5993,1961,2,Garage,,Sold,,,,2016-03-10,1599999,2016-04-08,1420000.0,http://www.redfin.com/CA/Cupertino/1119-Kentwood-Ave-95014/home/1777613,MLSListings Inc. (MLSLI),ML81548299,Intero Real Estate Services,N,Y,37.3055428,-122.0368643,false
Past Sale,Single Family Residential,10690 Johnson Ave,CUPERTINO,CA,95014,1168000,3,1.0,CUPERTINO,897,6319,1955,1,Garage,,Sold,,,,,1168000,2015-10-09,1375000.0,http://www.redfin.com/CA/Cupertino/10690-Johnson-Ave-95014/home/1740311,MLSListings Inc. (MLSLI),ML81515804,Maxreal,N,Y,37.312335,-122.000699,false
Past Sale,Single Family Residential,22304 Regnart Rd,CUPERTINO,CA,95014,2188000,2,1.0,CUPERTINO,720,254992,1935,0,,,Sold,,,,,2188000,2015-07-24,2123000.0,http://www.redfin.com/CA/Cupertino/22304-Regnart-Rd-95014/home/788155,MLSListings Inc. (MLSLI),ML81466185,Cupertino Properties,N,Y,37.290934,-122.065031,false
Past Sale,Single Family Residential,11721 Southshore Ct,CUPERTINO,CA,95014,1859000,3,3.0,CUPERTINO,1939,4792,1989,2,Garage,,Sold,,,,,1859000,2015-12-03,1815000.0,http://www.redfin.com/CA/Cupertino/11721-Southshore-Ct-95014/home/755942,MLSListings Inc. (MLSLI),ML81518589,Happy Real Estate Inc,N,Y,37.296854,-122.042176,false
Past Sale,Single Family Residential,20143 Suisun Dr,CUPERTINO,CA,95014,1698000,5,2.0,CUPERTINO,1855,7313,1959,2,Garage,,Sold,,,,,1698000,2015-08-13,1900000.0,http://www.redfin.com/CA/Cupertino/20143-Suisun-Dr-95014/home/1265560,MLSListings Inc. (MLSLI),ML81484637,Intero Real Estate Services,N,Y,37.315527,-122.025691,false
Past Sale,Single Family Residential,10490 San Felipe Rd,CUPERTINO,CA,95014,2498000,4,4.0,CUPERTINO,3625,8962,1987,3,Garage,,Sold,,,,,2498000,2015-10-14,2320500.0,http://www.redfin.com/CA/Cupertino/10490-San-Felipe-Rd-95014/home/1776282,MLSListings Inc. (MLSLI),ML81500602,Coldwell Banker,N,Y,37.315402,-122.073755,false
Past Sale,Single Family Residential,10480 Imperial Ave,CUPERTINO,CA,95014,1988000,5,3.5,CUPERTINO,3195,8415,1987,2,Garage,,Sold,,,,2015-09-16,2168000,2015-11-03,1988000.0,http://www.redfin.com/CA/Cupertino/10480-Imperial-Ave-95014/home/1265445,MLSListings Inc. (MLSLI),ML81497356,Coldwell Banker,N,Y,37.315713,-122.052979,false
Past Sale,Townhouse,20276 Pacifica Dr,CUPERTINO,CA,95014,997000,3,2.5,CUPERTINO,1640,3716,1979,2,Garage,,Sold,,,,,997000,2015-11-16,1342000.0,http://www.redfin.com/CA/Cupertino/20276-Pacifica-Dr-95014/home/1065684,MLSListings Inc. (MLSLI),ML81516778,Coldwell Banker,N,Y,37.315758,-122.028802,false
Past Sale,Townhouse,21977 Mcclellan Rd,CUPERTINO,CA,95014,939000,2,2.0,CUPERTINO,994,1964,1974,2,Garage,,Sold,,,,,939000,2015-11-19,1000000.0,http://www.redfin.com/CA/Cupertino/21977-McClellan-Rd-95014/home/1700617,MLSListings Inc. (MLSLI),ML81517851,Intero Real Estate Services,N,Y,37.315347,-122.05933,false
Past Sale,Single Family Residential,10511 San Felipe Rd,CUPERTINO,CA,95014,1998000,4,2.5,CUPERTINO,3004,9791,1981,3,Garage,,Sold,,,,,1998000,2015-11-20,2105000.0,http://www.redfin.com/CA/Cupertino/10511-San-Felipe-Rd-95014/home/1450896,MLSListings Inc. (MLSLI),ML81518769,Coldwell Banker,N,Y,37.315693,-122.074156,false
Past Sale,Single Family Residential,10464 Wunderlich Dr,CUPERTINO,CA,95014,1249988,3,2.0,CUPERTINO,1219,5100,1953,2,,,Sold,,,,2016-05-04,1398888,2016-05-19,1350000.0,http://www.redfin.com/CA/Cupertino/10464-Wunderlich-Dr-95014/home/676564,MLSListings Inc. (MLSLI),ML81582159,Maxreal,N,Y,37.3159596,-122.000502,false
Past Sale,Single Family Residential,1110 Milky Way,CUPERTINO,CA,95014,1499000,3,2.0,CUPERTINO,1196,8422,1960,2,Garage,,Sold,,,,,1499000,2015-12-01,1630000.0,http://www.redfin.com/CA/Cupertino/1110-Milky-Way-95014/home/786010,MLSListings Inc. (MLSLI),ML81518766,Coldwell Banker,N,Y,37.30525,-122.044208,false
Past Sale,Single Family Residential,7571 Lockford Ct,CUPERTINO,CA,95014,1458000,3,2.0,CUPERTINO,1190,6359,1961,2,Garage,,Sold,,,,,1458000,2016-05-20,1600000.0,http://www.redfin.com/CA/Cupertino/7571-Lockford-Ct-95014/home/1805225,MLSListings Inc. (MLSLI),ML81565408,KW Bay Area Estates,N,Y,37.305161,-122.039439,false
Past Sale,Single Family Residential,21612 Regnart Rd,CUPERTINO,CA,95014,1698000,4,2.5,CUPERTINO,2066,7811,1966,2,Garage,,Sold,,,,,1698000,2015-09-25,1980000.0,http://www.redfin.com/CA/Cupertino/21612-Regnart-Rd-95014/home/847591,MLSListings Inc. (MLSLI),ML81500681,Intero Real Estate Services,N,Y,37.302361,-122.052925,false
Past Sale,Single Family Residential,10624 Johnson Ave,CUPERTINO,CA,95014,999999,3,1.0,CUPERTINO,1119,5181,1954,1,Garage,,Sold,,,,,999999,2015-07-21,1360000.0,http://www.redfin.com/CA/Cupertino/10624-Johnson-Ave-95014/home/796284,MLSListings Inc. (MLSLI),ML81468458,Coldwell Banker,N,Y,37.313194,-121.99956,false
Past Sale,Single Family Residential,882 Betlin Ave,Cupertino,CA,95014,,3,2.0,95014,1080,,1958,,,,,,,,,,2015-07-01,1500000.0,http://www.redfin.com/CA/Cupertino/882-Betlin-Ave-95014/home/847838,,,,N,Y,37.313197,-122.021895,
Past Sale,Townhouse,10688 Stevens Canyon Rd #15,CUPERTINO,CA,95014,1349999,3,2.5,CUPERTINO,2222,1918,2007,1,Garage,,Sold,,,,,1349999,2015-12-31,1580000.0,http://www.redfin.com/CA/Cupertino/10688-Stevens-Canyon-Rd-95014/unit-15/home/101847577,MLSListings Inc. (MLSLI),ML81522172,Coldwell Banker,N,Y,37.313065,-122.068563,false
Past Sale,Townhouse,21096 White Fir Ct,CUPERTINO,CA,95014,818000,2,1.5,CUPERTINO,1003,833,1971,0,,,Sold,,,,,818000,2015-10-22,940000.0,http://www.redfin.com/CA/Cupertino/21096-White-Fir-Ct-95014/home/1466079,MLSListings Inc. (MLSLI),ML81513823,Stanford Professional Realty Inc,N,Y,37.3134,-122.04335,false
Past Sale,Single Family Residential,10659 Minette Dr,CUPERTINO,CA,95014,1795000,5,3.0,CUPERTINO,2103,6916,1953,2,Garage,,Sold,,,,,1795000,2016-04-26,1790000.0,http://www.redfin.com/CA/Cupertino/10659-Minette-Dr-95014/home/795858,MLSListings Inc. (MLSLI),ML81577041,KW Bay Area Estates,N,Y,37.313445,-122.001442,false
Past Sale,Single Family Residential,906 Liberty Ct,CUPERTINO,CA,95014,1699000,4,2.0,CUPERTINO,1602,7004,1963,2,Garage,,Sold,,,,,1699000,2016-05-03,1860000.0,http://www.redfin.com/CA/Cupertino/906-Liberty-Ct-95014/home/781517,MLSListings Inc. (MLSLI),ML81566508,Coldwell Banker,N,Y,37.313162,-122.051082,false
Past Sale,Single Family Residential,879 Bette Ave,CUPERTINO,CA,95014,1198000,4,2.0,CUPERTINO,1464,7405,1958,2,Garage,,Sold,,,,,1198000,2015-12-03,1550000.0,http://www.redfin.com/CA/Cupertino/879-Bette-Ave-95014/home/1119294,MLSListings Inc. (MLSLI),ML81520113,Lehr Real Estate,N,Y,37.3133265,-122.0215663,false
Past Sale,Single Family Residential,7712 Tomki Ct,CUPERTINO,CA,95014,1980000,4,3.0,CUPERTINO,3046,8529,1997,2,Garage,,Sold,,,,,1980000,2015-11-02,1900000.0,http://www.redfin.com/CA/Cupertino/7712-Tomki-Ct-95014/home/1550310,MLSListings Inc. (MLSLI),ML81485592,Coldwell Banker,N,Y,37.309782,-122.041767,false
Past Sale,Townhouse,10872 Canyon Vista Dr,CUPERTINO,CA,95014,1580000,2,2.0,CUPERTINO,2119,3485,1976,2,Garage,,Sold,,,,,1580000,2016-01-19,1580000.0,http://www.redfin.com/CA/Cupertino/10872-Canyon-Vista-Dr-95014/home/1465955,MLSListings Inc. (MLSLI),ML81520148,"Whitelaw & Sons Real Estate Services, Inc.",N,Y,37.309912,-122.0678,false
Past Sale,Single Family Residential,10865 W Estates Dr,CUPERTINO,CA,95014,1468000,4,2.0,CUPERTINO,1272,7213,1955,2,Garage,,Sold,,,,,1468000,2016-04-13,1600000.0,http://www.redfin.com/CA/Cupertino/10865-W-Estates-Dr-95014/home/1632219,MLSListings Inc. (MLSLI),ML81563213,Maxreal,N,Y,37.309803,-122.021918,false
Past Sale,Single Family Residential,11791 Sierra Spring Ct,CUPERTINO,CA,95014,1799000,3,3.0,CUPERTINO,1939,4792,1989,2,Garage,,Sold,,,,,1799000,2015-11-23,1790000.0,http://www.redfin.com/CA/Cupertino/11791-Sierra-Spring-Ct-95014/home/1595329,MLSListings Inc. (MLSLI),ML81516978,"Gotham Realty,Inc",N,Y,37.295868,-122.04175,false
Past Sale,Single Family Residential,7683 Shadowhill Ln,CUPERTINO,CA,95014,1780000,4,2.0,CUPERTINO,1832,6802,1963,2,Garage,,Sold,,,,2015-10-07,1825000,2015-11-10,1765000.0,http://www.redfin.com/CA/Cupertino/7683-Shadowhill-Ln-95014/home/1740319,MLSListings Inc. (MLSLI),ML81513626,Realty World-Residential Specialists,N,Y,37.3016999,-122.040824,false
Past Sale,Single Family Residential,19271 Phil Ln,CUPERTINO,CA,95014,1588888,3,2.0,CUPERTINO,1662,6098,1954,1,Garage,,Sold,,,,,1588888,2016-04-16,1540000.0,http://www.redfin.com/CA/Cupertino/19271-Phil-Ln-95014/home/1622961,MLSListings Inc. (MLSLI),ML81550994,Realty One Group - World Properties,N,Y,37.31638,-122.009973,false
Past Sale,Single Family Residential,22350 Palm Ave,CUPERTINO,CA,95014,1798000,2,2.0,CUPERTINO,1364,12633,1925,2,Garage,,Sold,,,,,1798000,2016-01-22,1928000.0,http://www.redfin.com/CA/Cupertino/22350-Palm-Ave-95014/home/782259,MLSListings Inc. (MLSLI),ML81521178,Intero Real Estate Services,N,Y,37.3163849,-122.06589,false
Past Sale,Single Family Residential,10715 Orline Ct,CUPERTINO,CA,95014,2498000,5,3.0,CUPERTINO,3436,12197,1987,20,Garage,,Sold,,,,,2498000,2015-07-20,2588000.0,http://www.redfin.com/CA/Cupertino/10715-Orline-Ct-95014/home/1358884,MLSListings Inc. (MLSLI),ML81464896,Intero Real Estate Services,N,Y,37.312526,-122.040768,false
Past Sale,Single Family Residential,10684 Deep Cliffe Dr,CUPERTINO,CA,95014,1849888,5,3.0,CUPERTINO,3361,10454,1965,2,Garage,,Sold,,,,,1849888,2015-08-26,2025000.0,http://www.redfin.com/CA/Cupertino/10684-Deep-Cliffe-Dr-95014/home/781054,MLSListings Inc. (MLSLI),ML81469454,Coldwell Banker,N,Y,37.3126559,-122.066186,false
Past Sale,Single Family Residential,7899 Robindell Way,CUPERTINO,CA,95014,1650000,3,2.0,CUPERTINO,1683,11200,1960,2,Garage,,Sold,,,,,1650000,2015-07-15,1785000.0,http://www.redfin.com/CA/Cupertino/7899-Robindell-Way-95014/home/1646697,MLSListings Inc. (MLSLI),ML81470654,Coldwell Banker,N,Y,37.304571,-122.044308,false
Past Sale,Single Family Residential,11250 Redondo Ct,CUPERTINO,CA,95014,1888000,4,2.5,CUPERTINO,1968,7742,1962,2,Garage,,Sold,,,,,1888000,2016-04-19,1950000.0,http://www.redfin.com/CA/Cupertino/11250-Redondo-Ct-95014/home/1382764,MLSListings Inc. (MLSLI),ML81565444,Coldwell Banker,N,Y,37.304576,-122.05455,false
Past Sale,Single Family Residential,10394 Glenview Ave,CUPERTINO,CA,95014,1698000,3,2.0,CUPERTINO,1506,6316,1958,2,Garage,,Sold,,,,,1698000,2016-04-08,1900000.0,http://www.redfin.com/CA/Cupertino/10394-Glenview-Ave-95014/home/611332,MLSListings Inc. (MLSLI),ML81562131,Intero Real Estate Services,N,Y,37.317264,-122.022065,false
Past Sale,Single Family Residential,10703 RAE Ln,CUPERTINO,CA,95014,2975000,5,4.0,CUPERTINO,3998,10890,1989,3,Garage,,Sold,,,,2015-06-15,3019888,2015-07-14,2900000.0,http://www.redfin.com/CA/Cupertino/10703-Rae-Ln-95014/home/972409,MLSListings Inc. (MLSLI),ML81465902,AA Group,N,Y,37.311722,-122.062614,false
Past Sale,Single Family Residential,22442 Carnoustie Ct,CUPERTINO,CA,95014,1898000,4,2.5,CUPERTINO,2226,11010,1964,2,Garage,,Sold,,,,,1898000,2015-11-09,1880000.0,http://www.redfin.com/CA/Cupertino/22442-Carnoustie-Ct-95014/home/1565844,MLSListings Inc. (MLSLI),ML81513697,Intero Real Estate Services,N,Y,37.311627,-122.068507,false
Past Sale,Single Family Residential,10790 Minette Dr,CUPERTINO,CA,95014,1198000,3,2.0,CUPERTINO,1127,6498,1954,1,Garage,,Sold,,,,,1198000,2015-11-30,1420000.0,http://www.redfin.com/CA/Cupertino/10790-Minette-Dr-95014/home/772532,MLSListings Inc. (MLSLI),ML81518809,Maxreal,N,Y,37.311639,-122.0029,false
Past Sale,Single Family Residential,19851 Lindenbrook Ln,CUPERTINO,CA,95014,1499000,3,2.0,CUPERTINO,1357,8296,1955,2,Garage,,Sold,,,,,1499000,2015-12-03,1650000.0,http://www.redfin.com/CA/Cupertino/19851-Lindenbrook-Ln-95014/home/649972,MLSListings Inc. (MLSLI),ML81519648,Intero Real Estate Services,N,Y,37.311788,-122.020607,false
Past Sale,Single Family Residential,19100 Meiggs Ln,CUPERTINO,CA,95014,1298000,3,2.0,CUPERTINO,1565,5148,1955,1,Garage,,Sold,,,,,1298000,2015-08-25,1611000.0,http://www.redfin.com/CA/Cupertino/19100-Meiggs-Ln-95014/home/1674946,MLSListings Inc. (MLSLI),ML81485703,Intero Real Estate Services,N,Y,37.3119687,-122.0067433,false
Past Sale,Single Family Residential,10777 Alderbrook Ln,CUPERTINO,CA,95014,1500000,3,2.0,CUPERTINO,1176,6507,1955,2,Garage,,Sold,,,,,1500000,2016-02-29,1550000.0,http://www.redfin.com/CA/Cupertino/10777-Alderbrook-Ln-95014/home/972652,MLSListings Inc. (MLSLI),ML81548339,Intero Real Estate Services,N,Y,37.3117551,-122.0179875,false
Past Sale,Single Family Residential,18640 Medicus Ct,CUPERTINO,CA,95014,1000000,3,1.0,CUPERTINO,1048,5787,1954,0,,,Sold,,,,,1000000,2015-09-09,1225000.0,http://www.redfin.com/CA/Cupertino/18640-Medicus-Ct-95014/home/1493966,MLSListings Inc. (MLSLI),ML81484176,Sereno Group,N,Y,37.316588,-121.99783,false
Past Sale,Single Family Residential,22490 Palm Ave,CUPERTINO,CA,95014,1688000,3,1.0,CUPERTINO,1092,8500,1946,2,Garage,,Sold,,,,,1688000,2016-03-30,1590000.0,http://www.redfin.com/CA/Cupertino/22490-Palm-Ave-95014/home/1355622,MLSListings Inc. (MLSLI),ML81549143,Next Century Realty,N,Y,37.316593,-122.068326,false
Past Sale,Single Family Residential,10822 BARRINGTON BRIDGE Ct,CUPERTINO,CA,95014,1799888,4,3.0,CUPERTINO,2604,4792,1990,2,Garage,,Sold,,,,,1799888,2015-11-30,1880000.0,http://www.redfin.com/CA/Cupertino/10822-Barrington-Bridge-Ct-95014/home/1298320,MLSListings Inc. (MLSLI),ML81519186,KW Silicon City,N,Y,37.3109624,-121.9963054,false
Past Sale,Single Family Residential,7537 Peach Blossom Dr,CUPERTINO,CA,95014,1488000,4,2.0,CUPERTINO,1591,6000,1960,2,Garage,,Sold,,,,,1488000,2015-06-30,1730000.0,http://www.redfin.com/CA/Cupertino/7537-Peach-Blossom-Dr-95014/home/786225,MLSListings Inc. (MLSLI),ML81462428,Keller Williams Realty - Cupertino,N,Y,37.299423,-122.037043,false
Past Sale,Single Family Residential,7617 Normandy Way,CUPERTINO,CA,95014,2188000,4,3.0,CUPERTINO,2160,6529,1962,2,Garage,,Sold,,,,2015-10-05,2288000,2015-12-04,2041000.0,http://www.redfin.com/CA/Cupertino/7617-Normandy-Way-95014/home/1646732,MLSListings Inc. (MLSLI),ML81484962,USRealty.com,N,Y,37.298649,-122.038923,false
Past Sale,Single Family Residential,20625 Wildflower Ct,CUPERTINO,CA,95014,1298000,3,2.5,CUPERTINO,1602,3080,1982,2,Garage,,Sold,,,,,1298000,2015-06-26,1610000.0,http://www.redfin.com/CA/Cupertino/20625-Wildflower-Ct-95014/home/787887,MLSListings Inc. (MLSLI),ML81468471,Intero Real Estate Services,N,Y,37.298553,-122.034138,false
Past Sale,Multi-Family (2-4 Unit),897 Miller Ave,Cupertino,CA,95014,,,,95014,1968,,1962,,,,,,,,,,2015-10-07,1395000.0,http://www.redfin.com/CA/Cupertino/897-Miller-Ave-95014/home/1230517,,,,N,Y,37.312439,-122.013771,
Past Sale,Single Family Residential,10422 San Fernando Ave,CUPERTINO,CA,95014,1988000,4,3.0,CUPERTINO,2687,7515,1950,4,Garage,,Sold,,,,,1988000,2015-09-15,1910000.0,http://www.redfin.com/CA/Cupertino/10422-San-Fernando-Ave-95014/home/1700605,MLSListings Inc. (MLSLI),ML81485909,Alain Pinel Realtors,N,Y,37.3167029,-122.059172,false
Past Sale,Single Family Residential,19000 Tilson Ave,CUPERTINO,CA,95014,2449000,5,4.0,CUPERTINO,3505,11751,1999,3,Garage,,Sold,,,,,2449000,2015-08-07,2570000.0,http://www.redfin.com/CA/Cupertino/19000-Tilson-Ave-95014/home/1359282,MLSListings Inc. (MLSLI),ML81471919,Keller Williams Realty - Cupertino,N,Y,37.316218,-122.0044247,false
Past Sale,Single Family Residential,10450 Orange Ave,CUPERTINO,CA,95014,2388000,6,4.0,CUPERTINO,3007,9509,1975,2,Garage,,Sold,,,,,2388000,2015-08-28,2328000.0,http://www.redfin.com/CA/Cupertino/10450-Orange-Ave-95014/home/783461,MLSListings Inc. (MLSLI),ML81486285,Intero Real Estate Services,N,Y,37.316463,-122.055236,false
Past Sale,Single Family Residential,10712 Farallone Dr,CUPERTINO,CA,95014,1808800,3,3.0,CUPERTINO,1512,7200,1960,2,Garage,,Sold,,,,,1808800,2015-12-09,1880000.0,http://www.redfin.com/CA/Cupertino/10712-Farallone-Dr-95014/home/1622806,MLSListings Inc. (MLSLI),ML81519784,Coldwell Banker,N,Y,37.31243,-122.02633,false
Past Sale,Townhouse,10934 Northview Sq,CUPERTINO,CA,95014,989000,2,2.0,CUPERTINO,1142,1441,1973,2,Garage,,Sold,,,,,989000,2016-05-27,1030000.0,http://www.redfin.com/CA/Cupertino/10934-Northview-Sq-95014/home/755354,MLSListings Inc. (MLSLI),ML81580893,Anthem Realty,N,Y,37.3355456,-122.0251576,false
Past Sale,Townhouse,10906 Northridge Sq,CUPERTINO,CA,95014,988000,2,2.0,CUPERTINO,1060,1346,1973,2,Garage,,Sold,,,,,988000,2016-06-14,1060000.0,http://www.redfin.com/CA/Cupertino/10906-Northridge-Sq-95014/home/745865,MLSListings Inc. (MLSLI),ML81583109,Coldwell Banker,N,Y,37.3355279,-122.026,false
Past Sale,Single Family Residential,10394 Bret Ave,CUPERTINO,CA,95014,1799999,4,2.0,CUPERTINO,2190,9355,1948,2,Garage,,Sold,,,,,1799999,2015-12-28,1730000.0,http://www.redfin.com/CA/Cupertino/10394-Bret-Ave-95014/home/1264250,MLSListings Inc. (MLSLI),ML81518773,Coldwell Banker,N,Y,37.317042,-122.004001,false
Past Sale,Single Family Residential,10411 Sterling,CUPERTINO,CA,95014,1449000,3,2.0,CUPERTINO,1327,6907,1954,1,Garage,,Sold,,,,,1449000,2015-12-29,1425000.0,http://www.redfin.com/CA/Cupertino/10411-Sterling-Blvd-95014/home/955203,MLSListings Inc. (MLSLI),ML81521507,Intero Real Estate Services,N,Y,37.31707,-121.9972698,false
Past Sale,Single Family Residential,10424 Sterling Blvd,CUPERTINO,CA,95014,1278000,3,1.0,CUPERTINO,1048,8712,1954,1,Garage,,Sold,,,,,1278000,2016-05-27,1300000.0,http://www.redfin.com/CA/Cupertino/10424-Sterling-Blvd-95014/home/1605522,MLSListings Inc. (MLSLI),ML81578262,Insight Realty,N,Y,37.31693,-121.996588,false
Past Sale,Single Family Residential,10416 Prune Tree Ln,CUPERTINO,CA,95014,2738000,5,3.5,CUPERTINO,2913,7469,2016,2,Garage,,Sold,,,,,2738000,2016-04-15,2800000.0,http://www.redfin.com/CA/Cupertino/10416-Prune-Tree-Ln-95014/home/1243264,MLSListings Inc. (MLSLI),ML81565446,Alain Pinel Realtors,N,Y,37.32873,-122.024733,false
Past Sale,Single Family Residential,20846 Fargo Dr,CUPERTINO,CA,95014,2688000,5,3.0,CUPERTINO,3618,9675,1996,3,Garage,,Sold,,,,,2688000,2015-08-11,2750000.0,http://www.redfin.com/CA/Cupertino/20846-Fargo-Dr-95014/home/1683653,MLSListings Inc. (MLSLI),ML81486341,Intero Real Estate Services,N,Y,37.328674,-122.038653,false
Past Sale,Single Family Residential,10180 Calvert Dr,CUPERTINO,CA,95014,1799999,5,3.0,CUPERTINO,3119,5586,1997,2,Garage,,Sold,,,,2015-09-11,2150000,2015-10-12,1800000.0,http://www.redfin.com/CA/Cupertino/10180-Calvert-Dr-95014/home/1753414,MLSListings Inc. (MLSLI),ML81485187,Coldwell Banker,N,Y,37.320398,-121.999591,false
Past Sale,Single Family Residential,18796 Arata Way,Cupertino,CA,95014,,3,1.0,95014,990,,1952,,,,,,,,,,2015-09-22,1355000.0,http://www.redfin.com/CA/Cupertino/18796-Arata-Way-95014/home/794647,,,,N,Y,37.3202659,-122.000689,
Past Sale,Single Family Residential,21870 San Fernando Ave,CUPERTINO,CA,95014,1599000,3,2.0,CUPERTINO,1589,9278,1953,3,Garage,,Sold,,,,,1599000,2015-08-18,1988000.0,http://www.redfin.com/CA/Cupertino/21870-San-Fernando-Ave-95014/home/755805,MLSListings Inc. (MLSLI),ML81498425,Coldwell Banker,N,Y,37.3181523,-122.0571784,false
Past Sale,Single Family Residential,10215 S Foothill Blvd,CUPERTINO,CA,95014,2496000,5,4.5,CUPERTINO,3491,8761,2015,2,Garage,,Sold,,,,,2496000,2015-09-30,2470000.0,http://www.redfin.com/CA/Cupertino/10215-S-Foothill-Blvd-95014/home/1613986,MLSListings Inc. (MLSLI),ML81500600,Coldwell Banker,N,Y,37.320067,-122.068961,false
Past Sale,Townhouse,10152 Firwood Dr,CUPERTINO,CA,95014,1198000,3,2.5,CUPERTINO,1785,1307,1974,2,Garage,,Sold,,,,,1198000,2015-12-08,1235000.0,http://www.redfin.com/CA/Cupertino/10152-Firwood-Dr-95014/home/1615411,MLSListings Inc. (MLSLI),ML81514829,Alain Pinel Realtors,N,Y,37.320015,-122.074263,false
Past Sale,Single Family Residential,22138 Berry Ct,CUPERTINO,CA,95014,2638000,4,4.5,CUPERTINO,2923,7531,2009,2,Garage,,Sold,,,,,2638000,2016-03-22,2825000.0,http://www.redfin.com/CA/Cupertino/22138-Berry-Ct-95014/home/23046312,MLSListings Inc. (MLSLI),ML81551048,Intero Real Estate Services,N,Y,37.317905,-122.054318,false
Past Sale,Townhouse,10172 Firwood Dr,CUPERTINO,CA,95014,995000,2,2.0,CUPERTINO,1009,2178,1974,1,Garage,,Sold,,,,,995000,2016-03-25,1151000.0,http://www.redfin.com/CA/Cupertino/10172-Firwood-Dr-95014/home/1605106,MLSListings Inc. (MLSLI),ML81549391,Goodview Financial & Real Estate,N,Y,37.319677,-122.074157,false
Past Sale,Single Family Residential,21871 Dolores Ave,CUPERTINO,CA,95014,3300000,5,4.5,CUPERTINO,3884,9687,2010,2,Garage,,Sold,,,,,3300000,2016-03-30,3300000.0,http://www.redfin.com/CA/Cupertino/21871-Dolores-Ave-95014/home/28895506,MLSListings Inc. (MLSLI),ML81548802,Starriver Inc,N,Y,37.3168409,-122.05708,false
Past Sale,Single Family Residential,20870 Pepper Tree Ln,CUPERTINO,CA,95014,1948000,4,3.0,CUPERTINO,1965,7631,1961,2,Garage,,Sold,,,,,1948000,2016-04-20,2100000.0,http://www.redfin.com/CA/Cupertino/20870-Pepper-Tree-Ln-95014/home/1383712,MLSListings Inc. (MLSLI),ML81565329,Keller Williams Realty - Cupertino,N,Y,37.319428,-122.039026,false
Past Sale,Single Family Residential,21861 Alcazar Ave,CUPERTINO,CA,95014,1498000,3,2.5,CUPERTINO,1376,9650,1984,2,Garage,,Sold,,,,,1498000,2016-05-13,1825000.0,http://www.redfin.com/CA/Cupertino/21861-Alcazar-Ave-95014/home/1121037,MLSListings Inc. (MLSLI),ML81578729,Coldwell Banker,N,Y,37.317745,-122.056913,false
Past Sale,Single Family Residential,21810 Almaden Ave,CUPERTINO,CA,95014,1699000,4,3.0,CUPERTINO,1493,4295,2014,2,Garage,,Sold,,,,,1699000,2016-05-18,1890000.0,http://www.redfin.com/CA/Cupertino/21810-Almaden-Ave-95014/home/1250473,MLSListings Inc. (MLSLI),ML81566559,Keller Williams Benchmark,N,Y,37.319042,-122.056048,false
Past Sale,Single Family Residential,10440 Scenic Blvd,CUPERTINO,CA,95014,1798000,4,3.0,CUPERTINO,2626,10001,1963,1,Garage,,Sold,,,,2016-04-21,1998000,2016-05-27,1750000.0,http://www.redfin.com/CA/Cupertino/10440-Scenic-Blvd-95014/home/782321,MLSListings Inc. (MLSLI),ML81579025,Benson Real Estate,N,Y,37.316989,-122.063812,false
Past Sale,Single Family Residential,22415 Palm,CUPERTINO,CA,95014,2888000,4,3.0,CUPERTINO,2913,17170,1961,5,Garage,,Sold,,,,,2888000,2015-10-30,2730000.0,http://www.redfin.com/CA/Cupertino/22415-Palm-Ave-95014/home/1493676,MLSListings Inc. (MLSLI),ML81513611,Intero Real Estate Services,N,Y,37.3170313,-122.0669237,false
Past Sale,Single Family Residential,10340 Orange Ave,CUPERTINO,CA,95014,1195000,3,1.0,CUPERTINO,1015,6500,1944,1,Garage,,Sold,,,,,1195000,2015-08-16,1500000.0,http://www.redfin.com/CA/Cupertino/10340-Orange-Ave-95014/home/1084181,MLSListings Inc. (MLSLI),ML81483419,Alain Pinel Realtors,N,Y,37.3178539,-122.055262,false
Past Sale,Single Family Residential,10234 Scenic Blvd,Cupertino,CA,95014,,2,1.0,95014,846,,1939,,,,,,,,,,2015-12-08,4000000.0,http://www.redfin.com/CA/Cupertino/10234-Scenic-Blvd-95014/home/782329,,,,N,Y,37.3196816,-122.063175,
Past Sale,Townhouse,10141 Firwood Dr,CUPERTINO,CA,95014,1199888,3,2.5,CUPERTINO,1498,1594,1973,2,Garage,,Sold,,,,,1199888,2016-06-10,1290000.0,http://www.redfin.com/CA/Cupertino/10141-Firwood-Dr-95014/home/1739892,MLSListings Inc. (MLSLI),ML81585072,Intero Almaden,N,Y,37.320427,-122.07472,false
Past Sale,Single Family Residential,10717 Amulet Pl,CUPERTINO,CA,95014,1996500,5,3.0,CUPERTINO,2611,21344,1968,3,Garage,,Sold,,,,,1996500,2015-06-25,2050000.0,http://www.redfin.com/CA/Cupertino/10717-Amulet-Pl-95014/home/774927,MLSListings Inc. (MLSLI),ML81463417,United Properties,N,Y,37.333235,-122.049099,false
Past Sale,Condo/Coop,10745 N De Anza Blvd #117,CUPERTINO,CA,95014,895000,2,2.0,CUPERTINO,1272,1294,2008,2,Garage,,Sold,,,,,895000,2015-10-01,950000.0,http://www.redfin.com/CA/Cupertino/10745-N-De-Anza-Blvd-95014/unit-117/home/18475841,MLSListings Inc. (MLSLI),ML81496655,"Rey Gervacio, Broker",N,Y,37.333199,-122.032805,false
Past Sale,Condo/Coop,10745 N De Anza Blvd #319,CUPERTINO,CA,95014,878888,2,1.5,CUPERTINO,1356,1294,2008,2,Garage,,Sold,,,,,878888,2015-10-08,910000.0,http://www.redfin.com/CA/Cupertino/10745-N-De-Anza-Blvd-95014/unit-319/home/23043989,MLSListings Inc. (MLSLI),ML81513794,Referral Realty,N,Y,37.333199,-122.032805,false
Past Sale,Condo/Coop,10745 N De Anza Blvd #314,CUPERTINO,CA,95014,924999,2,2.0,CUPERTINO,1317,1294,2008,2,Garage,,Sold,,,,,924999,2015-12-18,960000.0,http://www.redfin.com/CA/Cupertino/10745-N-De-Anza-Blvd-95014/unit-314/home/23043988,MLSListings Inc. (MLSLI),ML81520470,Alain Pinel Realtors,N,Y,37.333199,-122.032805,false
Past Sale,Single Family Residential,21030 Gardena Dr,Cupertino,CA,95014,,2,1.0,95014,1215,,1949,,,,,,,,,,2015-12-23,515000.0,http://www.redfin.com/CA/Cupertino/21030-Gardena-Dr-95014/home/773008,,,,N,Y,37.3332539,-122.042192,
Past Sale,Condo/Coop,22981 Stonebridge,CUPERTINO,CA,95014,1338000,3,2.5,CUPERTINO,2202,3349,1980,2,Garage,,Sold,,,,,1338000,2016-04-27,1350000.0,http://www.redfin.com/CA/Cupertino/22981-Stonebridge-95014/home/551229,MLSListings Inc. (MLSLI),ML81565285,Coldwell Banker,N,Y,37.322539,-122.077579,false
Past Sale,Townhouse,22677 Royal Oak Way,CUPERTINO,CA,95014,1098000,3,2.5,CUPERTINO,1341,1663,1970,2,Garage,,Sold,,,,,1098000,2016-05-12,1170000.0,http://www.redfin.com/CA/Cupertino/22677-Royal-Oak-Way-95014/home/801153,MLSListings Inc. (MLSLI),ML81579908,Coldwell Banker,N,Y,37.323883,-122.071178,false
Past Sale,Townhouse,22633 Queens Oak Ct,CUPERTINO,CA,95014,1199000,3,2.5,CUPERTINO,1341,1663,1970,2,Garage,,Sold,,,,,1199000,2016-05-20,1193000.0,http://www.redfin.com/CA/Cupertino/22633-Queens-Oak-Ct-95014/home/1531343,MLSListings Inc. (MLSLI),ML81577809,Maxreal,N,Y,37.3226283,-122.0708612,false
Past Sale,Multi-Family (2-4 Unit),10077 Santa Clara Ave,CUPERTINO,CA,95014,1838888,6,,CUPERTINO,2216,8100,1979,1,Garage,,Sold,,,,,1838888,2016-06-03,1800000.0,http://www.redfin.com/CA/Cupertino/10077-Santa-Clara-Ave-95014/home/983516,MLSListings Inc. (MLSLI),ML81578787,Coldwell Banker,N,Y,37.323739,-122.052011,false
Past Sale,Condo/Coop,10228 Nile Dr,CUPERTINO,CA,95014,930000,2,2.0,CUPERTINO,1154,1026,1986,2,Garage,,Sold,,,,2015-05-08,928000,2015-06-25,980000.0,http://www.redfin.com/CA/Cupertino/10228-Nile-Dr-95014/home/1764780,MLSListings Inc. (MLSLI),ML81462466,Coldwell Banker,N,Y,37.320441,-122.027272,false
Past Sale,Condo/Coop,20488 Stevens Creek Blvd #1612,CUPERTINO,CA,95014,756000,1,1.0,CUPERTINO,850,,2003,1,Garage,,Sold,,,,2015-08-18,839000,2015-09-28,745000.0,http://www.redfin.com/CA/Cupertino/20488-Stevens-Creek-Blvd-95014/unit-1612/home/1051689,MLSListings Inc. (MLSLI),ML81498649,"Joseph Chu, Broker",N,Y,37.3225939,-122.030892,false
Past Sale,Condo/Coop,10239 Nile Dr,CUPERTINO,CA,95014,898000,2,2.0,CUPERTINO,1154,1056,1986,2,Garage,,Sold,,,,,898000,2015-10-14,951000.0,http://www.redfin.com/CA/Cupertino/10239-Nile-Dr-95014/home/1244047,MLSListings Inc. (MLSLI),ML81514152,Maxreal,N,Y,37.320283,-122.027553,false
Past Sale,Single Family Residential,10206 Avocado Pl,CUPERTINO,CA,95014,1888000,5,3.0,CUPERTINO,2714,9881,1967,2,Garage,,Sold,,,,,1888000,2015-09-24,1900000.0,http://www.redfin.com/CA/Cupertino/10206-Avocado-Pl-95014/home/1140985,MLSListings Inc. (MLSLI),ML81470782,Coldwell Banker,N,Y,37.320367,-122.018498,false
Past Sale,Single Family Residential,18614 Loree Ave,CUPERTINO,CA,95014,1688000,3,2.5,CUPERTINO,1830,5100,1954,1,Garage,,Sold,,,,,1688000,2015-09-30,1610000.0,http://www.redfin.com/CA/Cupertino/18614-Loree-Ave-95014/home/1383967,MLSListings Inc. (MLSLI),ML81484746,NMK Real Estate Services,N,Y,37.320101,-121.99739,false
Past Sale,Single Family Residential,19133 Anne Ln,CUPERTINO,CA,95014,2566888,4,3.5,CUPERTINO,3066,11167,2015,2,Garage,,Sold,,,,2015-09-02,2788888,2015-10-01,2499888.0,http://www.redfin.com/CA/Cupertino/19133-Anne-Ln-95014/home/794452,MLSListings Inc. (MLSLI),ML81500488,Coldwell Banker,N,Y,37.321803,-122.007158,false
Past Sale,Single Family Residential,10152 MacAdam Ln,CUPERTINO,CA,95014,1488000,3,2.5,CUPERTINO,1507,6560,1997,2,Garage,,Sold,,,,,1488000,2015-12-04,1700000.0,http://www.redfin.com/CA/Cupertino/10152-Macadam-Ln-95014/home/1753302,MLSListings Inc. (MLSLI),ML81522920,Coldwell Banker,N,Y,37.3212593,-122.0278949,false
Past Sale,Condo/Coop,20128 Stevens Creek Blvd #102,CUPERTINO,CA,95014,799888,2,2.0,CUPERTINO,919,1543,2008,2,Garage,,Sold,,,,,799888,2015-12-16,855000.0,http://www.redfin.com/CA/Cupertino/20128-Stevens-Creek-Blvd-95014/unit-102/home/18269340,MLSListings Inc. (MLSLI),ML81520888,Intero Real Estate Services,N,Y,37.32261,-122.025507,false
Past Sale,Single Family Residential,10190 Calvert Dr,CUPERTINO,CA,95014,1058000,2,1.0,CUPERTINO,814,5234,1952,1,Garage,,Sold,,,,,1058000,2016-01-20,1208000.0,http://www.redfin.com/CA/Cupertino/10190-Calvert-Dr-95014/home/795460,MLSListings Inc. (MLSLI),ML81522911,Amici Real Estate,N,Y,37.3202211,-121.9995702,false
Past Sale,Condo/Coop,20488 Stevens Creek Blvd #1206,CUPERTINO,CA,95014,745000,1,1.0,CUPERTINO,850,401,2003,1,Garage,,Sold,,,,,745000,2016-02-09,730000.0,http://www.redfin.com/CA/Cupertino/20488-Stevens-Creek-Blvd-95014/unit-1206/home/1074360,MLSListings Inc. (MLSLI),ML81534061,Coldwell Banker,N,Y,37.3225939,-122.030892,false
Past Sale,Townhouse,20279 Pinntage Pkwy,CUPERTINO,CA,95014,1124000,2,2.5,CUPERTINO,1551,840,1984,2,Garage,,Sold,,,,,1124000,2016-04-15,1150000.0,http://www.redfin.com/CA/Cupertino/Pinntage-Pkwy-95014/home/790805,MLSListings Inc. (MLSLI),ML81562217,BayOne Realty,N,Y,37.320146,-122.027782,false
Past Sale,Condo/Coop,20488 Stevens Creek Blvd #2111,CUPERTINO,CA,95014,685000,1,1.0,CUPERTINO,875,435,2003,1,Garage,,Sold,,,,2016-04-15,750000,2016-05-27,720000.0,http://www.redfin.com/CA/Cupertino/Stevens-Creek-Blvd-95014/home/1811525,MLSListings Inc. (MLSLI),ML81576913,Peninsula Financial Services,N,Y,37.3225939,-122.030892,false
Past Sale,Single Family Residential,10210 Johnson Ave,CUPERTINO,CA,95014,1651000,3,3.0,CUPERTINO,1851,5024,2007,2,Garage,,Sold,,,,,1650000,2016-02-02,1675000.0,http://www.redfin.com/CA/Cupertino/10210-Johnson-Ave-95014/home/1128688,MLSListings Inc. (MLSLI),ML81518782,Realty World CGH & Associates,N,Y,37.3200001,-121.9986963,false
Past Sale,Condo/Coop,10239 Danube Dr,CUPERTINO,CA,95014,980000,2,2.0,CUPERTINO,1154,1200,1985,2,Garage,,Sold,,,,,980000,2016-05-31,995000.0,http://www.redfin.com/CA/Cupertino/10239-Danube-Dr-95014/home/790837,MLSListings Inc. (MLSLI),ML81583626,Coldwell Banker,N,Y,37.320073,-122.027151,false
Past Sale,Single Family Residential,10550 N Portal Ave,CUPERTINO,CA,95014,1588888,4,2.0,CUPERTINO,1498,7501,1962,2,Garage,,Sold,,,,,1588888,2015-07-28,1745000.0,http://www.redfin.com/CA/Cupertino/10550-N-Portal-Ave-95014/home/1615122,MLSListings Inc. (MLSLI),ML81470810,Coldwell Banker,N,Y,37.331133,-122.019253,false
Past Sale,Single Family Residential,10543 Cedar Tree Ct,CUPERTINO,CA,95014,1799000,5,2.0,CUPERTINO,2371,10955,1963,2,Garage,,Sold,,,,,1799000,2016-05-19,2000000.0,http://www.redfin.com/CA/Cupertino/10543-Cedar-Tree-Ct-95014/home/1264930,MLSListings Inc. (MLSLI),ML81579920,Intero Real Estate Services,N,Y,37.330826,-122.024548,false
Past Sale,Single Family Residential,10541 N Portal Ave,CUPERTINO,CA,95014,1688000,3,2.5,CUPERTINO,1852,7209,1962,2,Garage,,Sold,,,,,1688000,2016-05-27,1925000.0,http://www.redfin.com/CA/Cupertino/10541-N-Portal-Ave-95014/home/764700,MLSListings Inc. (MLSLI),ML81582455,Coldwell Banker,N,Y,37.330977,-122.01981,false
Past Sale,Single Family Residential,10439 N Blaney Ave,CUPERTINO,CA,95014,1750000,4,3.0,CUPERTINO,1908,7604,1962,2,Garage,,Sold,,,,,1750000,2015-09-25,1730000.0,http://www.redfin.com/CA/Cupertino/10439-N-Blaney-Ave-95014/home/829313,MLSListings Inc. (MLSLI),ML81501684,Sereno Group,N,Y,37.329158,-122.02349,false
Past Sale,Single Family Residential,10438 N Stelling Rd,CUPERTINO,CA,95014,2598000,5,5.5,CUPERTINO,3784,9375,2015,2,Garage,,Sold,,,,,2598000,2015-10-29,2750000.0,http://www.redfin.com/CA/Cupertino/10438-N-Stelling-Rd-95014/home/1535133,MLSListings Inc. (MLSLI),ML81513859,Maxreal,N,Y,37.329302,-122.04113,false
Past Sale,Townhouse,10357 Mary Ave,Cupertino,CA,95014,,2,1.0,95014,1216,,1971,,,,,,,,,,2015-10-02,920000.0,http://www.redfin.com/CA/Cupertino/10357-Mary-Ave-95014/home/568218,,,,N,Y,37.329279,-122.051325,
Past Sale,Single Family Residential,10445 Brewer Ave,Cupertino,CA,95014,,4,2.0,95014,2140,,1968,,,,,,,,,,2015-06-19,1950000.0,http://www.redfin.com/CA/Cupertino/10445-Brewer-Ave-95014/home/774275,,,,N,Y,37.3292689,-122.049245,
Past Sale,Single Family Residential,10408 Colby Ave,CUPERTINO,CA,95014,1598000,3,2.0,CUPERTINO,1408,7490,1960,2,Garage,,Sold,,,,2016-03-09,1888000,2016-04-15,1730000.0,http://www.redfin.com/CA/Cupertino/10408-Colby-Ave-95014/home/1673443,MLSListings Inc. (MLSLI),ML81550983,Coldwell Banker,N,Y,37.3289446,-122.0184494,false
Past Sale,Single Family Residential,10165 Adriana Ave,CUPERTINO,CA,95014,1750000,3,2.0,CUPERTINO,1568,9975,1951,1,Garage,,Sold,,,,,1750000,2015-07-13,1910000.0,http://www.redfin.com/CA/Cupertino/10165-Adriana-Ave-95014/home/1776060,MLSListings Inc. (MLSLI),ML81458855,Coldwell Banker,N,Y,37.325065,-122.055347,false
Past Sale,Single Family Residential,10171 Amelia Ct,CUPERTINO,CA,95014,2399000,4,3.5,CUPERTINO,2807,9671,1947,2,Garage,,Sold,,,,,2188000,2015-12-31,2400000.0,http://www.redfin.com/CA/Cupertino/10171-Amelia-Ct-95014/home/773554,MLSListings Inc. (MLSLI),ML81486074,Coldwell Banker,N,Y,37.325293,-122.063693,false
Past Sale,Townhouse,22687 Royal Oak Way,CUPERTINO,CA,95014,1198000,3,2.5,CUPERTINO,1614,1974,1970,2,Garage,,Sold,,,,,1198000,2016-02-26,1390000.0,http://www.redfin.com/CA/Cupertino/22687-Royal-Oak-Way-95014/home/1382735,MLSListings Inc. (MLSLI),ML81547632,Coldwell Banker,N,Y,37.323877,-122.071261,false
Past Sale,Townhouse,10133 Amador Oak Ct,CUPERTINO,CA,95014,1098000,3,2.5,CUPERTINO,1341,1589,1970,2,Garage,,Sold,,,,2016-02-06,1198000,2016-03-14,1135000.0,http://www.redfin.com/CA/Cupertino/10133-Amador-Oak-Ct-95014/home/582538,MLSListings Inc. (MLSLI),ML81546939,Intero Real Estate Services,N,Y,37.324203,-122.070675,false
Past Sale,Single Family Residential,10075 Crescent Rd,CUPERTINO,CA,95014,2698000,6,4.5,CUPERTINO,4262,15695,1985,3,Garage,,Sold,,,,2016-03-29,2988000,2016-05-12,2732000.0,http://www.redfin.com/CA/Cupertino/10075-Crescent-Rd-95014/home/772049,MLSListings Inc. (MLSLI),ML81562067,Coldwell Banker,N,Y,37.3244929,-122.063664,false
Past Sale,Single Family Residential,21912 Gardenview Ln,CUPERTINO,CA,95014,1599888,3,2.0,CUPERTINO,1100,12750,1955,2,Garage,,Sold,,,,,1599888,2016-05-27,1830000.0,http://www.redfin.com/CA/Cupertino/21912-Gardenview-Ln-95014/home/1118852,MLSListings Inc. (MLSLI),ML81577279,Referral Realty,N,Y,37.324781,-122.058048,false
Past Sale,Single Family Residential,10140 Phar Lap Dr,CUPERTINO,CA,95014,2150000,4,2.5,CUPERTINO,2466,6534,1964,2,Garage,,Sold,,,,,2150000,2016-06-01,2150000.0,http://www.redfin.com/CA/Cupertino/10140-Phar-Lap-Dr-95014/home/886390,MLSListings Inc. (MLSLI),ML81577529,RE/MAX Real Estate Services,N,Y,37.325288,-122.059734,false
Past Sale,Single Family Residential,10075 Peninsula Ave,CUPERTINO,CA,95014,1428000,3,2.5,CUPERTINO,1394,3428,1997,2,Garage,,Sold,,,,,1428000,2016-06-09,1428000.0,http://www.redfin.com/CA/Cupertino/10075-Peninsula-Ave-95014/home/773908,MLSListings Inc. (MLSLI),ML81582411,Intero Real Estate Services,N,Y,37.3238098,-122.0530208,false
Past Sale,Townhouse,22588 Lazy Oak Ct,CUPERTINO,CA,95014,1248888,4,2.5,CUPERTINO,1576,1663,1970,2,Garage,,Sold,,,,,1248888,2016-06-06,1248888.0,http://www.redfin.com/CA/Cupertino/22588-Lazy-Oak-Ct-95014/home/780068,MLSListings Inc. (MLSLI),ML81586196,Intero Real Estate Services,N,Y,37.324154,-122.069874,false
Past Sale,Townhouse,11112 Firethorne Dr,CUPERTINO,CA,95014,1100000,3,2.5,CUPERTINO,1598,1663,1977,2,Garage,,Sold,,,,,1100000,2015-10-19,1198000.0,http://www.redfin.com/CA/Cupertino/11112-Firethorne-Dr-95014/home/771043,MLSListings Inc. (MLSLI),ML81512382,Coldwell Banker,N,Y,37.339028,-122.032656,false
Past Sale,Single Family Residential,10183 Miner Pl,CUPERTINO,CA,95014,2150000,4,2.0,CUPERTINO,2527,6552,1977,2,Garage,,Sold,,,,,2150000,2015-12-22,2080000.0,http://www.redfin.com/CA/Cupertino/10183-Miner-Pl-95014/home/763820,MLSListings Inc. (MLSLI),ML81521024,Re/Max Accord,N,Y,37.325617,-122.030777,false
Past Sale,Single Family Residential,10197 Colby Ave,CUPERTINO,CA,95014,1588000,3,2.0,CUPERTINO,1408,7373,1960,2,Garage,,Sold,,,,,1588000,2016-01-27,1700000.0,http://www.redfin.com/CA/Cupertino/10197-Colby-Ave-95014/home/1530961,MLSListings Inc. (MLSLI),ML81533896,Intero Real Estate Services,N,Y,37.325856,-122.019005,false
Past Sale,Single Family Residential,10211 Colby Ave,CUPERTINO,CA,95014,1688888,3,2.0,CUPERTINO,1348,7374,1960,2,Garage,,Sold,,,,,1688888,2016-05-17,1805000.0,http://www.redfin.com/CA/Cupertino/10211-Colby-Ave-95014/home/926024,MLSListings Inc. (MLSLI),ML81577606,Coldwell Banker,N,Y,37.326059,-122.019007,false
Past Sale,Single Family Residential,10700 Stokes Ave,CUPERTINO,CA,95014,1498000,4,3.0,CUPERTINO,2080,6970,1970,2,Garage,,Sold,,,,,1498000,2015-08-27,1775000.0,http://www.redfin.com/CA/Cupertino/10700-Stokes-Ave-95014/home/1183216,MLSListings Inc. (MLSLI),ML81497030,Alain Pinel Realtors,N,Y,37.331286,-122.058583,false
Past Sale,Single Family Residential,10600 Randy Ln,CUPERTINO,CA,95014,1499000,4,2.0,CUPERTINO,1653,9750,1952,2,Garage,,Sold,,,,,1499000,2016-03-18,1800600.0,http://www.redfin.com/CA/Cupertino/10600-Randy-Ln-95014/home/954342,MLSListings Inc. (MLSLI),ML81550565,Coldwell Banker,N,Y,37.331686,-122.02583,false
Past Sale,Single Family Residential,10221 Bonny Dr,CUPERTINO,CA,95014,1748000,4,2.0,CUPERTINO,1780,7810,1961,4,Garage,,Sold,,,,,1748000,2016-03-11,1900000.0,http://www.redfin.com/CA/Cupertino/10221-Bonny-Dr-95014/home/784086,MLSListings Inc. (MLSLI),ML81549762,KW Bay Area Estates,N,Y,37.319846,-122.038105,false
Past Sale,Single Family Residential,10169 S Foothill Blvd,CUPERTINO,CA,95014,1668000,4,3.5,CUPERTINO,2406,8363,1977,2,Garage,,Sold,,,,,1668000,2016-04-10,1800000.0,http://www.redfin.com/CA/Cupertino/10169-S-Foothill-Blvd-95014/home/1631897,MLSListings Inc. (MLSLI),ML81563190,Sereno Group,N,Y,37.320814,-122.068997,false
Past Sale,Condo/Coop,10242 Danube Dr,CUPERTINO,CA,95014,665000,1,1.0,CUPERTINO,884,1054,1985,2,Garage,,Sold,,,,2016-03-09,680000,2016-04-15,770000.0,http://www.redfin.com/CA/Cupertino/10242-Danube-Dr-95014/home/1285077,MLSListings Inc. (MLSLI),ML81564438,Coldwell Banker,N,Y,37.319819,-122.027089,false
Past Sale,Townhouse,22823 Longdown Rd,CUPERTINO,CA,95014,1349000,5,2.5,CUPERTINO,1936,1801,1974,2,Garage,,Sold,,,,,1349000,2015-10-23,1400000.0,http://www.redfin.com/CA/Cupertino/22823-Longdown-Rd-95014/home/1263915,MLSListings Inc. (MLSLI),ML81514631,Intero Almaden,N,Y,37.3217346,-122.0750004,false
Past Sale,Single Family Residential,21870 Lomita Ave,CUPERTINO,CA,95014,2680000,5,4.5,CUPERTINO,3417,9000,1999,2,Garage,,Sold,,,,,2680000,2015-12-02,2820000.0,http://www.redfin.com/CA/Cupertino/21870-Lomita-Ave-95014/home/1595151,MLSListings Inc. (MLSLI),ML81519658,Alain Pinel Realtors,N,Y,37.3199452,-122.0572007,false
Past Sale,Condo/Coop,22805 Poplar Grove Sq,Cupertino,CA,95014,,4,2.0,95014,1936,,1973,,,,,,,,,,2015-11-04,1287500.0,http://www.redfin.com/CA/Cupertino/22805-Poplar-Grove-Sq-95014/home/1615371,,,,N,Y,37.321149,-122.074515,
Past Sale,Single Family Residential,21921 Hermosa Ave,CUPERTINO,CA,95014,1799000,3,3.0,CUPERTINO,2416,9400,1920,2,Garage,,Sold,,,,,1799000,2016-05-18,1850000.0,http://www.redfin.com/CA/Cupertino/21921-Hermosa-Ave-95014/home/783258,MLSListings Inc. (MLSLI),ML81578530,NewVision Realty Group,N,Y,37.321362,-122.057948,false
Past Sale,Single Family Residential,10530 Stokes Ave,CUPERTINO,CA,95014,1598800,5,2.5,CUPERTINO,2440,7420,1970,2,Garage,,Sold,,,,,1598800,2015-07-01,1760000.0,http://www.redfin.com/CA/Cupertino/10530-Stokes-Ave-95014/home/776093,MLSListings Inc. (MLSLI),ML81469621,Coldwell Banker,N,Y,37.330245,-122.054792,false
Past Sale,Single Family Residential,10510 Ainsworth Dr,CUPERTINO,CA,95014,1989000,4,2.5,CUPERTINO,2420,10410,1968,2,Garage,,Sold,,,,,1989000,2015-09-02,2000007.0,http://www.redfin.com/CA/Cupertino/10510-Ainsworth-Dr-95014/home/1674233,MLSListings Inc. (MLSLI),ML81498457,Maxreal,N,Y,37.329932,-122.06415,false
Past Sale,Single Family Residential,21030 Greenleaf Dr,CUPERTINO,CA,95014,3368000,5,4.5,CUPERTINO,3738,9290,2016,2,Garage,,Sold,,,,,3368000,2016-04-11,3250000.0,http://www.redfin.com/CA/Cupertino/21030-Greenleaf-Dr-95014/home/772763,MLSListings Inc. (MLSLI),ML81564129,Maxreal,N,Y,37.3305318,-122.0422399,false
Past Sale,Townhouse,10399 Mary Ave,CUPERTINO,CA,95014,968000,2,1.5,CUPERTINO,1216,1598,1971,1,Garage,,Sold,,,,,968000,2016-06-02,1000000.0,http://www.redfin.com/CA/Cupertino/10399-Mary-Ave-95014/home/1216286,MLSListings Inc. (MLSLI),ML81586200,Intero Real Estate Services,N,Y,37.329877,-122.05092,false
Past Sale,Single Family Residential,22706 Medina Ct,CUPERTINO,CA,95014,1989000,4,3.0,CUPERTINO,2580,9358,1984,3,Garage,,Sold,,,,,1989000,2015-08-18,2300000.0,http://www.redfin.com/CA/Cupertino/22706-Medina-Ct-95014/home/1714305,MLSListings Inc. (MLSLI),ML81497361,Coldwell Banker,N,Y,37.318305,-122.0723338,false
Past Sale,Single Family Residential,10330 Menhart Ln,CUPERTINO,CA,95014,999000,3,1.0,CUPERTINO,990,5862,1952,0,,,Sold,,,,,999000,2015-10-15,1000000.0,http://www.redfin.com/CA/Cupertino/10330-Menhart-Ln-95014/home/1755181,MLSListings Inc. (MLSLI),ML81472692,Coldwell Banker,N,Y,37.3185235,-122.0012775,false
Past Sale,Single Family Residential,21800 Almaden Ave,CUPERTINO,CA,95014,1798888,2,1.0,CUPERTINO,1104,9085,1941,1,Garage,,Sold,,,,,1699950,2015-10-27,1750000.0,http://www.redfin.com/CA/Cupertino/21800-Almaden-Ave-95014/home/782854,MLSListings Inc. (MLSLI),ML81516062,Coldwell Banker,N,Y,37.319043,-122.055795,false
Past Sale,Single Family Residential,19132 Muriel Ln,CUPERTINO,CA,95014,2588000,3,3.0,CUPERTINO,3010,11427,1949,8,Garage,,Sold,,,,,2588000,2015-11-17,2538000.0,http://www.redfin.com/CA/Cupertino/19132-Muriel-Ln-95014/home/795154,MLSListings Inc. (MLSLI),ML81486049,Amici Real Estate,N,Y,37.31826,-122.007126,false
Past Sale,Single Family Residential,10310 Moretti Dr,CUPERTINO,CA,95014,1799000,4,3.5,CUPERTINO,1911,5302,2012,2,Garage,,Sold,,,,,1799000,2016-01-11,1910000.0,http://www.redfin.com/CA/Cupertino/10310-Moretti-Dr-95014/home/1244157,MLSListings Inc. (MLSLI),ML81533816,Intero Real Estate Services,N,Y,37.318444,-122.002201,false
Past Sale,Multi-Family (2-4 Unit),22437 Walnut Cir N,Cupertino,CA,95014,,,,95014,2500,,1978,,,,,,,,,,2016-01-20,2000000.0,http://www.redfin.com/CA/Cupertino/22437-Walnut-Cir-N-95014/home/1658985,,,,N,Y,37.318836,-122.067956,
Past Sale,Single Family Residential,10280 Sterling Blvd,CUPERTINO,CA,95014,1288000,3,2.0,CUPERTINO,1127,10013,1954,1,Garage,,Sold,,,,,1288000,2016-03-16,1418000.0,http://www.redfin.com/CA/Cupertino/10280-Sterling-Blvd-95014/home/551613,MLSListings Inc. (MLSLI),ML81550039,Alain Pinel Realtors,N,Y,37.318976,-121.996204,false
Past Sale,Single Family Residential,10305 Calvert Dr,CUPERTINO,CA,95014,1295000,3,2.0,CUPERTINO,1045,4948,1952,0,,,Sold,,,,,1295000,2016-03-18,1310000.0,http://www.redfin.com/CA/Cupertino/10305-Calvert-Dr-95014/home/784822,MLSListings Inc. (MLSLI),ML81549901,Home and Investment,N,Y,37.318523,-122.000116,false
Past Sale,Single Family Residential,10290 Sterling Blvd,CUPERTINO,CA,95014,1850000,5,3.5,CUPERTINO,2127,9479,2016,2,Garage,,Sold,,,,2016-04-08,1980000,2016-05-20,1850000.0,http://www.redfin.com/CA/Cupertino/10290-Sterling-Blvd-95014/home/794867,MLSListings Inc. (MLSLI),ML81548969,Keller Williams Realty - Cupertino,N,Y,37.318814,-121.996265,false
Past Sale,Multi-Family (2-4 Unit),10322 Degas Ct,CUPERTINO,CA,95014,2030000,5,,CUPERTINO,2631,10267,1971,2,Garage,,Sold,,,,,2030000,2016-05-25,2030000.0,http://www.redfin.com/CA/Cupertino/10322-Degas-Ct-95014/home/871823,MLSListings Inc. (MLSLI),ML81578851,Brittain Commercial,N,Y,37.318422,-122.073732,false
Past Sale,Single Family Residential,10290 Stern Ave,CUPERTINO,CA,95014,2248000,5,4.0,CUPERTINO,3177,5527,1998,3,Garage,,Sold,,,,,2248000,2016-02-26,2260000.0,http://www.redfin.com/CA/Cupertino/10290-Stern-Ave-95014/home/1566199,MLSListings Inc. (MLSLI),ML81547656,Coldwell Banker,N,Y,37.3188562,-122.0030972,false
Past Sale,Single Family Residential,10279 Palo Vista Rd,CUPERTINO,CA,95014,1898000,4,2.5,CUPERTINO,2366,9698,1975,2,Garage,,Sold,,,,,1898000,2015-08-30,1960000.0,http://www.redfin.com/CA/Cupertino/10279-Palo-Vista-Rd-95014/home/1726219,MLSListings Inc. (MLSLI),ML81485142,Intero Real Estate Services,N,Y,37.3189548,-122.0665188,false
Past Sale,Single Family Residential,10300 Palo Vista Rd,CUPERTINO,CA,95014,2388000,3,2.0,CUPERTINO,2126,12600,1954,2,Garage,,Sold,,,,,2388000,2016-04-27,2300000.0,http://www.redfin.com/CA/Cupertino/10300-Palo-Vista-Rd-95014/home/838801,MLSListings Inc. (MLSLI),ML81564357,Stevensen & Neal Realtors,N,Y,37.3186729,-122.065927,false
Past Sale,Single Family Residential,10290 Wunderlich Dr,CUPERTINO,CA,95014,1999888,5,3.5,CUPERTINO,2785,5529,1996,2,Garage,,Sold,,,,,1999888,2016-05-31,2060000.0,http://www.redfin.com/CA/Cupertino/10290-Wunderlich-Dr-95014/home/794720,MLSListings Inc. (MLSLI),ML81581132,Keller Williams Realty - Cupertino,N,Y,37.318676,-122.0004491,false
Past Sale,Single Family Residential,10345 Moretti Dr,CUPERTINO,CA,95014,1100000,3,2.0,CUPERTINO,1078,5529,1952,0,,,Sold,,,,,1100000,2015-06-30,1380000.0,http://www.redfin.com/CA/Cupertino/10345-Moretti-Dr-95014/home/551611,MLSListings Inc. (MLSLI),ML81459666,Intero Real Estate Services,N,Y,37.317921,-122.002739,false
Past Sale,Single Family Residential,10334 S Tantau Ave,CUPERTINO,CA,95014,1298000,3,1.5,CUPERTINO,1785,9396,1949,2,Garage,,Sold,,,,,1298000,2015-09-23,1650000.0,http://www.redfin.com/CA/Cupertino/10334-S-Tantau-Ave-95014/home/1594833,MLSListings Inc. (MLSLI),ML81515953,Maxreal,N,Y,37.318055,-122.006144,false
Past Sale,Condo/Coop,20500 Town Center Ln #295,CUPERTINO,CA,95014,899888,2,2.0,CUPERTINO,1116,436,2006,2,Garage,,Sold,,,,,899888,2015-06-26,966000.0,http://www.redfin.com/CA/Cupertino/20500-Town-Center-Ln-95014/unit-295/home/12180507,MLSListings Inc. (MLSLI),ML81468996,Giant Realty Inc.,N,Y,37.3179597,-122.0314495,false
Past Sale,Condo/Coop,"20500 TOWN CENTER LANE , #296",CUPERTINO,CA,95014,1098000,3,2.0,CUPERTINO,1193,,2006,2,Garage,,Sold,,,,,1098000,2015-08-24,1260000.0,http://www.redfin.com/CA/Cupertino/20500-Town-Center-Ln-95014/unit-296/home/12180508,MLSListings Inc. (MLSLI),ML81485104,Century 21 M&M and Associates,N,Y,37.3179597,-122.0314495,false
Past Sale,Condo/Coop,20500 Town Center Ln #288,CUPERTINO,CA,95014,908888,2,2.0,CUPERTINO,1230,,2006,2,Garage,,Sold,,,,,908888,2015-10-16,950000.0,http://www.redfin.com/CA/Cupertino/20500-Town-Center-Ln-95014/unit-288/home/12181580,MLSListings Inc. (MLSLI),ML81515461,Keller Williams Realty - Cupertino,N,Y,37.3179597,-122.0314495,false
Past Sale,Condo/Coop,20500 Town Center Ln #263,CUPERTINO,CA,95014,668000,1,1.0,CUPERTINO,743,435,2006,1,Garage,,Sold,,,,,668000,2016-04-01,780000.0,http://www.redfin.com/CA/Cupertino/20500-Town-Center-Ln-95014/unit-263/home/12180491,MLSListings Inc. (MLSLI),ML81563316,Coldwell Banker,N,Y,37.3179597,-122.0314495,false
Past Sale,Condo/Coop,20500 Town Center Ln #297,Cupertino,CA,95014-3268,900000,2,2.0,Cupertino,1116,435,2006,2,Garage,,Sold,,,,,900000,2016-05-02,992000.0,http://www.redfin.com/CA/Cupertino/20500-Town-Center-Ln-95014/unit-297/home/12180509,East Bay Regional Data (EBRD),40736232,Coldwell Banker,N,Y,37.3179597,-122.0314495,false
Past Sale,Single Family Residential,10289 E Estates Dr,Cupertino,CA,95014,,3,2.0,95014,1392,,1959,,,,,,,,,,2015-06-30,1655000.0,http://www.redfin.com/CA/Cupertino/10289-E-Estates-Dr-95014/home/1684239,,,,N,Y,37.319147,-122.016677,
Past Sale,Single Family Residential,10289 Menhart Ln,CUPERTINO,CA,95014,1499000,4,2.0,CUPERTINO,1560,5150,2015,2,Garage,,Sold,,,,,1499000,2016-05-02,1622000.0,http://www.redfin.com/CA/Cupertino/10289-Menhart-Ln-95014/home/1688483,MLSListings Inc. (MLSLI),ML81565867,Montalvo Realty,N,Y,37.319208,-122.000741,false
Past Sale,Condo/Coop,20664 Mapletree Pl,Cupertino,CA,95014,,3,2.0,95014,1445,,1977,,,,,,,,,,2015-10-30,850000.0,http://www.redfin.com/CA/Cupertino/20664-Mapletree-Pl-95014/home/1284392,,,,N,Y,37.338233,-122.0346104,
Past Sale,Single Family Residential,20685 Rodrigues Ave,CUPERTINO,CA,95014,1853000,3,2.5,CUPERTINO,1841,10023,1952,2,Garage,,Sold,,,,,1853000,2015-08-14,2030000.0,http://www.redfin.com/CA/Cupertino/20685-Rodrigues-Ave-95014/home/1227456,MLSListings Inc. (MLSLI),ML81499020,Intero Real Estate Services,N,Y,37.319549,-122.035813,false
Past Sale,Single Family Residential,18891 Loree Ave,CUPERTINO,CA,95014,2050000,5,3.5,CUPERTINO,2610,5305,1996,2,Garage,,Sold,,,,,2050000,2016-05-27,2050000.0,http://www.redfin.com/CA/Cupertino/18891-Loree-Ave-95014/home/794684,MLSListings Inc. (MLSLI),ML81581378,Intero Real Estate Services,N,Y,37.31937,-122.002213,false
Past Sale,Single Family Residential,18848 Loree Ave,CUPERTINO,CA,95014,1488000,4,3.0,CUPERTINO,1638,5401,1952,2,Garage,,Sold,,,,,1488000,2016-05-19,1580000.0,http://www.redfin.com/CA/Cupertino/18848-Loree-Ave-95014/home/1426805,MLSListings Inc. (MLSLI),ML81578776,Intero Real Estate Services,N,Y,37.3193344,-122.0014134,false
Past Sale,Townhouse,20568 Cedarbrook Ter,CUPERTINO,CA,95014,948000,2,2.5,CUPERTINO,1385,1850,1977,2,Garage,,Sold,,,,,948000,2015-10-15,1005000.0,http://www.redfin.com/CA/Cupertino/20568-Cedarbrook-Ter-95014/home/771086,MLSListings Inc. (MLSLI),ML81514810,Intero Real Estate Services,N,Y,37.3389212,-122.0337145,false
Past Sale,Single Family Residential,10394 Mira Vista Rd,CUPERTINO,CA,95014,2298888,4,3.0,CUPERTINO,2791,9487,1998,2,Garage,,Sold,,,,,2298888,2015-07-15,2420000.0,http://www.redfin.com/CA/Cupertino/10394-Mira-Vista-Rd-95014/home/746220,MLSListings Inc. (MLSLI),ML81467083,Avenue Realty,N,Y,37.317403,-122.064835,false
Past Sale,Single Family Residential,19160 Twig Ln,Cupertino,CA,95014,,3,1.0,95014,1544,,1949,,,,,,,,,,2015-09-16,468500.0,http://www.redfin.com/CA/Cupertino/19160-Twig-Ln-95014/home/1151121,,,,N,Y,37.3174067,-122.0076517,
Past Sale,Townhouse,10280 Park Green Ln #842,CUPERTINO,CA,95014,1368000,3,2.5,CUPERTINO,1670,1742,2006,2,Garage,,Sold,,,,,1368000,2015-10-23,1458800.0,http://www.redfin.com/CA/Cupertino/10280-Park-Green-Ln-95014/unit-842/home/12181556,MLSListings Inc. (MLSLI),ML81516838,Intero Real Estate Services,N,Y,37.3176721,-122.0301122,false
Past Sale,Single Family Residential,10380 Calvert Dr,CUPERTINO,CA,95014,1717660,5,5.0,CUPERTINO,2581,5018,1952,2,Garage,,Sold,,,,2015-10-13,1850000,2015-12-04,1720000.0,http://www.redfin.com/CA/Cupertino/10380-Calvert-Dr-95014/home/1065794,MLSListings Inc. (MLSLI),ML81499372,Home and Investment,N,Y,37.31739,-121.999563,false
Past Sale,Single Family Residential,10395 Wunderlich Dr,CUPERTINO,CA,95014,1588000,3,3.0,CUPERTINO,1733,4947,2007,2,Garage,,Sold,,,,,1588000,2016-05-27,1720000.0,http://www.redfin.com/CA/Cupertino/10395-Wunderlich-Dr-95014/home/1244160,MLSListings Inc. (MLSLI),ML81581137,Maxreal,N,Y,37.3170958,-122.0009901,false
Past Sale,Single Family Residential,10397 Tonita Way,CUPERTINO,CA,95014,1495000,4,2.0,CUPERTINO,1676,7500,1960,2,Garage,,Sold,,,,,1495000,2015-08-11,1810000.0,http://www.redfin.com/CA/Cupertino/10397-Tonita-Way-95014/home/634500,MLSListings Inc. (MLSLI),ML81471927,Coldwell Banker,N,Y,37.3171316,-122.0369078,false
