SALE TYPE,HOME TYPE,ADDRESS,CITY,STATE,ZIP,LIST PRICE,BEDS,BATHS,LOCATION,SQFT,LOT SIZE,YEAR BUILT,PARKING SPOTS,PARKING TYPE,DAYS ON MARKET,STATUS,NEXT OPEN HOUSE DATE,NEXT OPEN HOUSE START TIME,NEXT OPEN HOUSE END TIME,RECENT REDUCTION DATE,ORIGINAL LIST PRICE,LAST SALE DATE,LAST SALE PRICE,URL (SEE http://www.redfin.com/buy-a-home/comparative-market-analysis FOR INFO ON PRICING),SOURCE,LISTING ID,ORIGINAL SOURCE,FAVORITE,INTERESTED,LATITUDE,LONGITUDE,IS SHORT SALE
New Construction Plan,Single Family Residential,Plan 8,Sunnyvale,CA,94086,1225100,4,3.5,Sandalwood,1914,,,2,Garage,81,Active,,,,,1209990,,,http://www.redfin.com/CA/Sunnyvale/Sandalwood/Plan-8/home/104232848,DR Horton,Plan-262512,DR Horton,N,Y,37.373049,-122.015794,FALSE
MLS Listing,Single Family Residential,670 E DUANE Ave,SUNNYVALE,CA,94085,998888,4,2,SUNNYVALE,1389,5227,1953,0,,20,Active,,,,,998888,2011-12-02,"420,000",http://www.redfin.com/CA/Sunnyvale/670-E-Duane-Ave-94085/home/1576390,MLSListings Inc. (MLSLI),ML81587069,Realty Champion Inc,N,Y,37.388205,-122.013505,FALSE
MLS Listing,Single Family Residential,1050 Paintbrush Dr,SUNNYVALE,CA,94086,1498000,4,3,SUNNYVALE,2068,7442,1963,2,Garage,54,Active,,,,2016-05-19,1498000,1996-10-09,"313,000",http://www.redfin.com/CA/Sunnyvale/1050-Paintbrush-Dr-94086/home/1328001,MLSListings Inc. (MLSLI),ML81580927,Kurniadi Realty,N,Y,37.359285,-122.004825,FALSE
New Construction Plan,Townhouse,Arques Place - Residence 3A,Sunnyvale,CA,94085,1020000,4,3.5,Arques Place,1795,,,2,Garage,158,Active,,,,,1020000,,,http://www.redfin.com/CA/Sunnyvale/Arques-Place/Arques-Place-Residence-3A/home/102527935,NewHomeFeed,Plan-245793,NewHomeFeed,N,Y,37.382073,-122.017565,FALSE
MLS Listing,Single Family Residential,1355 Norman Dr,SUNNYVALE,CA,94087,1799000,4,2.5,SUNNYVALE,2652,9730,1950,2,Garage,36,Active,2016-06-18,13:00,16:00,2016-06-09,1849000,1997-06-17,"330,000",http://www.redfin.com/CA/Sunnyvale/1355-Norman-Dr-94087/home/1087693,MLSListings Inc. (MLSLI),ML81584337,Bayview Residential Brokerage,N,Y,37.349904,-122.010392,FALSE
MLS Listing,Single Family Residential,973 Bidwell Ave,SUNNYVALE,CA,94086,1595000,4,2,SUNNYVALE,1901,7500,1978,1,Garage,23,Active,,,,,1595000,2000-06-30,"680,000",http://www.redfin.com/CA/Sunnyvale/973-Bidwell-Ave-94086/home/1749084,MLSListings Inc. (MLSLI),ML81586675,Starriver Inc,N,Y,37.3817563,-122.0440267,FALSE
MLS Listing,Single Family Residential,1667 S Wolfe Rd,SUNNYVALE,CA,94087,1300000,4,2,SUNNYVALE,1308,5710,1959,2,Garage,1,Active,2016-06-18,13:30,16:30,,1300000,,,http://www.redfin.com/CA/Sunnyvale/1667-S-Wolfe-Rd-94087/home/1859787,MLSListings Inc. (MLSLI),ML81590157,Coldwell Banker,N,Y,37.339257,-122.014566,FALSE
MLS Listing,Single Family Residential,330 Polaris Ter,SUNNYVALE,CA,94086,1998888,5,3,SUNNYVALE,2421,2603,2016,2,Garage,44,Active,,,,,1998888,,,http://www.redfin.com/CA/SUNNYVALE/330-Polaris-Ter-94086/home/105435505,MLSListings Inc. (MLSLI),ML81582962,"Classic Communities, Inc.",N,Y,37.372781,-122.0342319,FALSE
MLS Listing,Single Family Residential,1460 Kyle Ct,SUNNYVALE,CA,94087,1998888,5,2.5,SUNNYVALE,2288,9021,1961,2,Garage,12,Active,,,,,1998888,2007-08-03,"1,500,500",http://www.redfin.com/CA/Sunnyvale/1460-Kyle-Ct-94087/home/1355160,MLSListings Inc. (MLSLI),ML81588002,Xc'lent Real Estate,N,Y,37.346074,-122.047995,FALSE
MLS Listing,Single Family Residential,1704 Laurentian Way,SUNNYVALE,CA,94087,1998000,5,3,SUNNYVALE,2433,12937,1968,2,Garage,4,Active,,,,,1998000,2011-04-12,"1,300,000",http://www.redfin.com/CA/Sunnyvale/1704-Laurentian-Way-94087/home/1644289,MLSListings Inc. (MLSLI),ML81589489,Today Sothebys International Realty,N,Y,37.337067,-122.0507,FALSE
MLS Listing,Single Family Residential,1650 Kalispell Ct,SUNNYVALE,CA,94087,1988000,4,2.5,SUNNYVALE,1768,9180,1961,3,Garage,11,Active,,,,,1988000,1980-09-05,"129,500",http://www.redfin.com/CA/Sunnyvale/1650-Kalispell-Ct-94087/home/1622304,MLSListings Inc. (MLSLI),ML81588271,Coldwell Banker,N,Y,37.338841,-122.052842,FALSE
MLS Listing,Townhouse,546 Crown Point Ter,SUNNYVALE,CA,94087,1498000,4,3,SUNNYVALE,1829,1459,2014,2,Garage,5,Active,,,,,1498000,,,http://www.redfin.com/CA/Sunnyvale/546-Crown-Point-Ter-94087/home/95957202,MLSListings Inc. (MLSLI),ML81589380,Alain Pinel Realtors,N,Y,37.3677635,-122.0386173,FALSE
MLS Listing,Townhouse,1137 Kassel Ter,SUNNYVALE,CA,94089,1249000,4,3.5,SUNNYVALE,2191,1176,2007,2,Garage,5,Active,,,,,1249000,2007-09-28,"852,500",http://www.redfin.com/CA/Sunnyvale/1137-Kassel-Ter-94089/home/12179461,MLSListings Inc. (MLSLI),ML81589392,Alain Pinel Realtors,N,Y,37.403075,-122.01411,FALSE
MLS Listing,Single Family Residential,784 Duncardine Way,SUNNYVALE,CA,94087,1749000,4,2,SUNNYVALE,1553,6695,1961,1,Garage,5,Active,,,,,1749000,2011-05-20,"910,000",http://www.redfin.com/CA/Sunnyvale/784-Duncardine-Way-94087/home/1061799,MLSListings Inc. (MLSLI),ML81589374,Sereno Group,N,Y,37.34499,-122.019425,FALSE
MLS Listing,Single Family Residential,966 Astoria Dr,SUNNYVALE,CA,94087,1778888,4,2,SUNNYVALE,1371,8398,1955,2,Garage,32,Active,,,,,1698000,2012-07-10,"1,080,000",http://www.redfin.com/CA/Sunnyvale/966-Astoria-Dr-94087/home/1284358,MLSListings Inc. (MLSLI),ML81584905,Intero Real Estate Services,N,Y,37.351394,-122.052969,FALSE
MLS Listing,Single Family Residential,483 Lincoln Ave,SUNNYVALE,CA,94086,1649000,4,3,SUNNYVALE,2413,5401,2014,2,Garage,9,Active,,,,,1649000,1999-12-23,"300,000",http://www.redfin.com/CA/Sunnyvale/483-Lincoln-Ave-94086/home/1773062,MLSListings Inc. (MLSLI),ML81588775,Coldwell Banker,N,Y,37.374481,-122.024628,FALSE
MLS Listing,Single Family Residential,777 Cascade Dr,SUNNYVALE,CA,94087,1895000,4,2.5,SUNNYVALE,2077,7400,1960,2,Garage,11,Active,,,,,1895000,1993-05-06,"418,000",http://www.redfin.com/CA/Sunnyvale/777-Cascade-Dr-94087/home/770164,MLSListings Inc. (MLSLI),ML81588260,Sereno Group,N,Y,37.348446,-122.044254,FALSE
MLS Listing,Townhouse,519 Cape Blanco Ct,SUNNYVALE,CA,94087,1230000,4,2.5,SUNNYVALE,1966,1799,1974,2,Garage,12,Active,,,,,1230000,2010-02-08,"710,000",http://www.redfin.com/CA/Sunnyvale/519-Cape-Blanco-Ct-94087/home/772290,MLSListings Inc. (MLSLI),ML81587795,Keller Williams Realty - Cupertino,N,Y,37.349374,-122.033337,FALSE
MLS Listing,Single Family Residential,1185 S Mary Ave,SUNNYVALE,CA,94087,1550000,4,2,SUNNYVALE,1903,7801,1962,2,Garage,75,Active,,,,2016-06-08,1780000,1993-06-22,"296,000",http://www.redfin.com/CA/Sunnyvale/1185-S-Mary-Ave-94087/home/1376375,MLSListings Inc. (MLSLI),ML81577540,Sereno Group,N,Y,37.356186,-122.050781,FALSE
MLS Listing,Single Family Residential,898 Lois Ave,SUNNYVALE,CA,94087,1499000,4,2,SUNNYVALE,1833,6000,1953,1,Garage,4,Active,,,,,1499000,2009-06-12,"985,000",http://www.redfin.com/CA/Sunnyvale/898-Lois-Ave-94087/home/1392882,MLSListings Inc. (MLSLI),ML81589512,Coldwell Banker,N,Y,37.36425,-122.053389,FALSE
MLS Listing,Single Family Residential,855 Henderson Ave,SUNNYVALE,CA,94086,1399000,4,2,SUNNYVALE,1749,6799,1977,2,Garage,32,Active,,,,2016-06-01,1485000,2001-03-14,"560,000",http://www.redfin.com/CA/Sunnyvale/855-Henderson-Ave-94086/home/1398365,MLSListings Inc. (MLSLI),ML81584878,Assistance Realty,N,Y,37.359585,-122.005312,FALSE
MLS Listing,Single Family Residential,917 Exmoor Way,SUNNYVALE,CA,94087,1488000,5,4,SUNNYVALE,2725,5950,1966,2,Garage,5,Active,,,,,1488000,2012-09-14,"1,070,000",http://www.redfin.com/CA/Sunnyvale/917-Exmoor-Way-94087/home/1493208,MLSListings Inc. (MLSLI),ML81589329,Alain Pinel Realtors,N,Y,37.3442825,-122.0122217,FALSE
MLS Listing,Single Family Residential,312 Polaris Ter,SUNNYVALE,CA,94086,1998888,5,3,SUNNYVALE,2212,2602,2016,2,Garage,37,Active,2016-06-13,13:00,17:00,,1998888,,,http://www.redfin.com/CA/SUNNYVALE/312-Polaris-Ter-94086/home/103947947,MLSListings Inc. (MLSLI),ML81584253,"Classic Communities, Inc.",N,Y,37.372781,-122.0342319,FALSE
MLS Listing,Single Family Residential,1382 Pointe Claire Dr,SUNNYVALE,CA,94087,1659000,4,3,SUNNYVALE,1675,7920,1962,2,Garage,11,Active,,,,,1659000,2010-06-03,"966,000",http://www.redfin.com/CA/Sunnyvale/1382-Pointe-Claire-Dr-94087/home/1183081,MLSListings Inc. (MLSLI),ML81588294,MGM Real Estate,N,Y,37.348886,-122.039439,FALSE
Past Sale,Single Family Residential,1040 Lassen Ter,SUNNYVALE,CA,94086,1428000,4,2.5,SUNNYVALE,2070,3145,2004,2,Garage,,Sold,,,,,1428000,2016-06-03,"1,562,800",http://www.redfin.com/CA/Sunnyvale/1040-Lassen-Ter-94086/home/1485240,MLSListings Inc. (MLSLI),ML81583453,Berkshire Hathaway HomeServices DrysdaleProperties,N,Y,37.378633,-122.0477144,FALSE
Past Sale,Single Family Residential,554 Cypress Ave,SUNNYVALE,CA,94085,1058000,4,3,SUNNYVALE,1881,5048,1952,1,Garage,,Sold,,,,,1058000,2016-05-08,"1,100,000",http://www.redfin.com/CA/Sunnyvale/554-Cypress-Ave-94085/home/1427852,MLSListings Inc. (MLSLI),ML81577614,Coldwell Banker,N,Y,37.388316,-122.017441,FALSE
Past Sale,Single Family Residential,343 N Murphy Ave,SUNNYVALE,CA,94085,1488000,4,3,SUNNYVALE,1934,5201,2016,2,Garage,,Sold,,,,,1488000,2016-05-18,"1,575,000",http://www.redfin.com/CA/Sunnyvale/343-N-Murphy-Ave-94085/home/1513362,MLSListings Inc. (MLSLI),ML81578844,Keller Williams Realty-Silicon Valley,N,Y,37.3856618,-122.027217,FALSE
Past Sale,Single Family Residential,1196 E Vanderbilt Ct,SUNNYVALE,CA,94087,1888800,4,5,SUNNYVALE,2780,7300,1960,2,Garage,,Sold,,,,2016-03-14,1998800,2016-04-27,"1,852,000",http://www.redfin.com/CA/Sunnyvale/1196-Vanderbilt-Ct-E-94087/home/1278170,MLSListings Inc. (MLSLI),ML81549346,WePro Real Estate Services,N,Y,37.354498,-122.039298,FALSE
Past Sale,Single Family Residential,1339 Poplar Ave,SUNNYVALE,CA,94087,1375000,5,3,SUNNYVALE,2114,9374,1952,2,Garage,,Sold,,,,,1375000,2016-04-20,"1,410,000",http://www.redfin.com/CA/Sunnyvale/1339-Poplar-Ave-94087/home/761844,MLSListings Inc. (MLSLI),ML81564749,"Almer Consulting Services, Inc",N,Y,37.3506972,-122.0083106,FALSE
Past Sale,Single Family Residential,1356 Drysdale Dr,SUNNYVALE,CA,94087,2338000,5,3.5,SUNNYVALE,3100,8300,2016,2,Garage,,Sold,,,,,2338000,2016-05-09,"2,650,000",http://www.redfin.com/CA/Sunnyvale/1356-Drysdale-Dr-94087/home/52911019,MLSListings Inc. (MLSLI),ML81578786,Coldwell Banker,N,Y,37.3506221,-122.0566385,FALSE
Past Sale,Single Family Residential,1097 Enderby Way,SUNNYVALE,CA,94087,1850000,4,3,SUNNYVALE,2060,12992,1958,2,Garage,,Sold,,,,,1850000,2016-05-17,"1,950,000",http://www.redfin.com/CA/Sunnyvale/1097-Enderby-Way-94087/home/597413,MLSListings Inc. (MLSLI),ML81579904,Coldwell Banker,N,Y,37.3464699,-122.05876,FALSE
Past Sale,Single Family Residential,1161 Sesame Dr,SUNNYVALE,CA,94087,1699000,4,2,SUNNYVALE,1660,8228,1959,1,Garage,,Sold,,,,,1699000,2016-05-25,"1,715,000",http://www.redfin.com/CA/Sunnyvale/1161-Sesame-Dr-94087/home/1009947,MLSListings Inc. (MLSLI),ML81579890,Sereno Group,N,Y,37.3558724,-122.0387765,FALSE
Past Sale,Single Family Residential,1678 Francolin Ter,SUNNYVALE,CA,94087,1638888,4,3,SUNNYVALE,1709,3249,2007,2,Garage,,Sold,,,,,1638888,2016-05-03,"1,690,000",http://www.redfin.com/CA/Sunnyvale/1678-Francolin-Ter-94087/home/12178926,MLSListings Inc. (MLSLI),ML81565517,Keller Williams Realty - Cupertino,N,Y,37.33815,-122.02221,FALSE
Past Sale,Single Family Residential,934 W Olive Ave,SUNNYVALE,CA,94086,1599000,4,2.5,SUNNYVALE,1933,5985,1978,2,Garage,,Sold,,,,,1599000,2016-04-19,"1,610,000",http://www.redfin.com/CA/Sunnyvale/934-W-Olive-Ave-94086/home/1627736,MLSListings Inc. (MLSLI),ML81562922,Jade Fountain Realty,N,Y,37.372143,-122.045783,FALSE
Past Sale,Single Family Residential,375 S Fair Oaks Ave,SUNNYVALE,CA,94086,1299888,4,2,SUNNYVALE,1600,5776,1948,1,Garage,,Sold,,,,,1299888,2016-05-26,"1,380,000",http://www.redfin.com/CA/Sunnyvale/375-S-Fair-Oaks-Ave-94086/home/1509045,MLSListings Inc. (MLSLI),ML81582209,CSR Real Estate Services,N,Y,37.3714609,-122.022107,FALSE
Past Sale,Single Family Residential,334 Polaris Ter,SUNNYVALE,CA,94086,2258888,5,2,SUNNYVALE,2212,3358,2015,2,Garage,,Sold,,,,,2258888,2016-05-24,"2,173,232",http://www.redfin.com/CA/SUNNYVALE/334-Polaris-Ter-94086/home/103947945,MLSListings Inc. (MLSLI),ML81562223,"Classic Communities, Inc.",N,Y,37.372781,-122.0342319,FALSE
Past Sale,Single Family Residential,788 Grape Ave,SUNNYVALE,CA,94087,1768000,5,3,SUNNYVALE,2345,6198,1955,2,Garage,,Sold,,,,,1768000,2016-05-25,"1,968,000",http://www.redfin.com/CA/Sunnyvale/788-Grape-Ave-94087/home/1392894,MLSListings Inc. (MLSLI),ML81579125,Coldwell Banker,N,Y,37.3692364,-122.0541232,FALSE
Past Sale,Single Family Residential,842 Hanover Ave,SUNNYVALE,CA,94087,1868000,4,2.5,SUNNYVALE,1947,7400,1962,2,Garage,,Sold,,,,,1868000,2016-04-25,"1,868,000",http://www.redfin.com/CA/Sunnyvale/842-Hanover-Ave-94087/home/880173,MLSListings Inc. (MLSLI),ML81566541,Keller Williams Realty - Cupertino,N,Y,37.3647319,-122.044169,FALSE
Past Sale,Single Family Residential,1573 Bedford Ave,SUNNYVALE,CA,94087,1988000,4,2,SUNNYVALE,2110,8500,1957,2,Garage,,Sold,,,,,1988000,2016-05-05,"2,300,000",http://www.redfin.com/CA/Sunnyvale/1573-Bedford-Ave-94087/home/768643,MLSListings Inc. (MLSLI),ML81577332,Sereno Group,N,Y,37.3420694,-122.0624776,FALSE
Past Sale,Single Family Residential,1656 Edmonton Ave,SUNNYVALE,CA,94087,1848000,4,2,SUNNYVALE,1890,7992,1958,2,Garage,,Sold,,,,,1848000,2016-04-29,"1,850,000",http://www.redfin.com/CA/Sunnyvale/1656-Edmonton-Ave-94087/home/995916,MLSListings Inc. (MLSLI),ML81565090,Sereno Group,N,Y,37.338954,-122.055626,FALSE
Past Sale,Single Family Residential,1121 Lafayette Dr,SUNNYVALE,CA,94087,1650000,6,3,SUNNYVALE,2316,5998,1954,2,,,Sold,,,,,1650000,2016-03-22,"1,770,000",http://www.redfin.com/CA/Sunnyvale/1121-Lafayette-Dr-94087/home/883129,MLSListings Inc. (MLSLI),ML81550000,RE/MAX Real Estate Services,N,Y,37.363542,-122.057424,FALSE
Past Sale,Single Family Residential,439 S Sunnyvale Ave,SUNNYVALE,CA,94086,1350000,4,3,SUNNYVALE,1628,2910,2015,2,Garage,,Sold,,,,,1350000,2016-04-01,"1,350,000",http://www.redfin.com/CA/Sunnyvale/439-S-Sunnyvale-Ave-94086/home/104310229,MLSListings Inc. (MLSLI),ML81578079,Intero Real Estate Services,N,Y,37.3718627,-122.0306855,FALSE
Past Sale,Multi-Family (2-4 Unit),331-333 Kenmore Ave,SUNNYVALE,CA,94086,1138000,4,,SUNNYVALE,1468,6160,1948,2,Garage,,Sold,,,,,1138000,2016-04-04,"1,307,000",http://www.redfin.com/CA/Sunnyvale/333-Kenmore-Ave-94086/home/104223301,MLSListings Inc. (MLSLI),ML81566236,Century 21 M&M and Associates,N,Y,37.3725828,-122.023477,FALSE
Past Sale,Single Family Residential,1360 Bobolink Cir,SUNNYVALE,CA,94087,1675000,4,2,SUNNYVALE,2270,6825,1959,2,Garage,,Sold,,,,,1675000,2016-03-30,"1,903,000",http://www.redfin.com/CA/Sunnyvale/1360-Bobolink-Cir-94087/home/1530864,MLSListings Inc. (MLSLI),ML81561539,KW Bay Area Estates,N,Y,37.350172,-122.028422,FALSE
Past Sale,Single Family Residential,932 Mackenzie Dr,SUNNYVALE,CA,94087,1998000,5,2.5,SUNNYVALE,2333,9100,1968,2,Garage,,Sold,,,,,1998000,2016-03-02,"2,250,000",http://www.redfin.com/CA/Sunnyvale/932-Mackenzie-Dr-94087/home/1183180,MLSListings Inc. (MLSLI),ML81547630,Sereno Group,N,Y,37.336767,-122.05223,FALSE
Past Sale,Single Family Residential,980 Honfleur Ct,SUNNYVALE,CA,94087,1850000,4,2.5,SUNNYVALE,1788,9266,1961,2,Garage,,Sold,,,,,1850000,2016-03-28,"1,850,000",http://www.redfin.com/CA/Sunnyvale/980-Honfleur-Ct-94087/home/770255,MLSListings Inc. (MLSLI),ML81577221,Asante Real Estate- Mountain View,N,Y,37.340088,-122.054071,FALSE
Past Sale,Single Family Residential,915 Arrowrock Pl,SUNNYVALE,CA,94087,1988888,4,2,SUNNYVALE,2852,11500,1956,2,Garage,,Sold,,,,,1988888,2016-03-28,"2,325,000",http://www.redfin.com/CA/Sunnyvale/915-Arrowrock-Pl-94087/home/1777363,MLSListings Inc. (MLSLI),ML81550024,Coldwell Banker,N,Y,37.350235,-122.05264,FALSE
Past Sale,Single Family Residential,1414 S Mary Ave,SUNNYVALE,CA,94087,1878000,5,4,SUNNYVALE,2824,7919,1961,2,Garage,,Sold,,,,,1878000,2016-03-30,"2,080,000",http://www.redfin.com/CA/Sunnyvale/1414-S-Mary-Ave-94087/home/769584,MLSListings Inc. (MLSLI),ML81563184,Coldwell Banker,N,Y,37.347482,-122.049657,FALSE
Past Sale,Single Family Residential,1541 Nuthatch Ln,SUNNYVALE,CA,94087,1495000,4,2,SUNNYVALE,1664,6000,1963,2,Garage,,Sold,,,,2016-03-11,1549888,2016-04-14,"1,495,000",http://www.redfin.com/CA/Sunnyvale/1541-Nuthatch-Ln-94087/home/762879,MLSListings Inc. (MLSLI),ML81551040,Intero Real Estate Services,N,Y,37.343134,-122.011204,FALSE
Past Sale,Single Family Residential,982 Durlane Ct,SUNNYVALE,CA,94087,1348000,4,2,SUNNYVALE,1421,6891,1959,2,Garage,,Sold,,,,,1348000,2016-04-21,"1,600,000",http://www.redfin.com/CA/Sunnyvale/982-Durlane-Ct-94087/home/761433,MLSListings Inc. (MLSLI),ML81564359,Intero Real Estate Services,N,Y,37.343576,-122.008371,FALSE
Past Sale,Townhouse,242 Peppermint Tree Ter #2,SUNNYVALE,CA,94086,988000,4,3.5,SUNNYVALE,1586,2178,2008,2,Garage,,Sold,,,,,988000,2016-04-26,"1,150,888",http://www.redfin.com/CA/Sunnyvale/242-Peppermint-Tree-Ter-94086/unit-2/home/16901158,MLSListings Inc. (MLSLI),ML81565453,Realty One Group - World Properties,N,Y,37.3709927,-122.012649,FALSE
Past Sale,Single Family Residential,141 Carlow Ct,SUNNYVALE,CA,94087,1675000,5,3,SUNNYVALE,2175,7575,1965,2,Garage,,Sold,,,,,1675000,2016-04-22,"1,860,000",http://www.redfin.com/CA/Sunnyvale/141-Carlow-Ct-94087/home/1814956,MLSListings Inc. (MLSLI),ML81565513,Intero Real Estate Services,N,Y,37.348491,-122.030822,FALSE
Past Sale,Single Family Residential,1321 Arleen Ave,SUNNYVALE,CA,94087,1988000,4,3,SUNNYVALE,2690,8712,2016,2,Garage,,Sold,,,,,1988000,2016-04-29,"2,405,000",http://www.redfin.com/CA/Sunnyvale/1321-Arleen-Ave-94087/home/1615076,MLSListings Inc. (MLSLI),ML81566497,Sereno Group,N,Y,37.351311,-122.019406,FALSE
Past Sale,Single Family Residential,414 Flora Vista Ave,SUNNYVALE,CA,94086,1649000,4,2.5,SUNNYVALE,2049,5344,2012,2,Garage,,Sold,,,,2016-03-23,1749000,2016-04-29,"1,700,000",http://www.redfin.com/CA/Sunnyvale/414-Flora-Vista-Ave-94086/home/40509413,MLSListings Inc. (MLSLI),ML81562899,Coldwell Banker,N,Y,37.3714344,-122.0284488,FALSE
Past Sale,Townhouse,940 E Duane Ave,SUNNYVALE,CA,94085,1099000,4,3.5,SUNNYVALE,1882,871,2011,2,Garage,,Sold,,,,,1099000,2016-04-27,"1,108,000",http://www.redfin.com/CA/Sunnyvale/940-E-Duane-Ave-94085/home/41395973,MLSListings Inc. (MLSLI),ML81564350,"Imax Realty & Mortgage, Inc",N,Y,37.3883262,-122.0038133,FALSE
Past Sale,Single Family Residential,411 Central Ave,SUNNYVALE,CA,94086,1349000,4,2,SUNNYVALE,1526,5427,1943,4,Garage,,Sold,,,,,1349000,2016-04-27,"1,350,000",http://www.redfin.com/CA/Sunnyvale/411-Central-Ave-94086/home/1786241,MLSListings Inc. (MLSLI),ML81566144,Starriver Inc,N,Y,37.371544,-122.024947,FALSE
Past Sale,Single Family Residential,1341 Spoonbill Way,SUNNYVALE,CA,94087,1599000,4,2,SUNNYVALE,1794,5928,1973,2,Garage,,Sold,,,,,1599000,2016-05-02,"1,510,000",http://www.redfin.com/CA/Sunnyvale/1341-Spoonbill-Way-94087/home/1438182,MLSListings Inc. (MLSLI),ML81565105,Sereno Group,N,Y,37.350503,-122.003728,FALSE
Past Sale,Single Family Residential,1493 Chickadee Ct,SUNNYVALE,CA,94087,1098000,4,2,SUNNYVALE,1701,6534,1971,2,Garage,,Sold,,,,,1098000,2016-05-13,"1,410,000",http://www.redfin.com/CA/Sunnyvale/1493-Chickadee-Ct-94087/home/1226089,MLSListings Inc. (MLSLI),ML81581185,Wilbur Properties,N,Y,37.345007,-122.028498,FALSE
Past Sale,Single Family Residential,983 Lakedale Way,SUNNYVALE,CA,94089,1149000,4,3,SUNNYVALE,2100,5936,1959,2,Garage,,Sold,,,,,1149000,2016-05-13,"1,160,000",http://www.redfin.com/CA/Sunnyvale/983-Lakedale-Way-94089/home/588115,MLSListings Inc. (MLSLI),ML81578848,Sereno Group,N,Y,37.398334,-121.998271,FALSE
Past Sale,Single Family Residential,774 Starbush Dr,SUNNYVALE,CA,94086,1398000,5,2.5,SUNNYVALE,2376,6198,1974,2,Garage,,Sold,,,,,1398000,2016-05-16,"1,750,000",http://www.redfin.com/CA/Sunnyvale/774-Starbush-Dr-94086/home/669347,MLSListings Inc. (MLSLI),ML81578856,Intero Real Estate Services,N,Y,37.362723,-122.002845,FALSE
Past Sale,Single Family Residential,632 Sheraton Dr,SUNNYVALE,CA,94087,1748000,4,2,SUNNYVALE,1768,7200,1959,1,Garage,,Sold,,,,,1748000,2016-05-17,"1,800,000",http://www.redfin.com/CA/Sunnyvale/632-Sheraton-Dr-94087/home/1659981,MLSListings Inc. (MLSLI),ML81578808,Sereno Group,N,Y,37.357983,-122.038153,FALSE
Past Sale,Single Family Residential,331 Polaris Ter,SUNNYVALE,CA,94086,2200000,5,3,SUNNYVALE,2191,2597,2015,2,Garage,,Sold,,,,,2200000,2016-05-17,"2,118,583",http://www.redfin.com/CA/SUNNYVALE/331-Polaris-Ter-94086/home/103947848,MLSListings Inc. (MLSLI),ML81562199,"Classic Communities, Inc.",N,Y,37.372781,-122.0342319,FALSE
Past Sale,Single Family Residential,999 Tulip Ct,SUNNYVALE,CA,94086,1188000,4,2.5,SUNNYVALE,1479,6000,1963,2,Garage,,Sold,,,,,1188000,2016-05-18,"1,215,000",http://www.redfin.com/CA/Sunnyvale/999-Tulip-Ct-94086/home/810915,MLSListings Inc. (MLSLI),ML81580027,Sereno Group,N,Y,37.355516,-122.008271,FALSE
Past Sale,Single Family Residential,1346 Spoonbill Way,SUNNYVALE,CA,94087,1498000,4,2,SUNNYVALE,1794,5928,1973,2,Garage,,Sold,,,,,1498000,2016-05-18,"1,560,000",http://www.redfin.com/CA/Sunnyvale/1346-Spoonbill-Way-94087/home/755156,MLSListings Inc. (MLSLI),ML81578865,Infohome Inc,N,Y,37.35034,-122.003175,FALSE
Past Sale,Single Family Residential,599 Balsam Ave,SUNNYVALE,CA,94085,1248000,4,3,SUNNYVALE,2018,5048,1952,2,Garage,,Sold,,,,,1248000,2016-05-23,"1,264,000",http://www.redfin.com/CA/Sunnyvale/599-Balsam-Ave-94085/home/1467537,MLSListings Inc. (MLSLI),ML81580240,Coldwell Banker Residential Brokerage,N,Y,37.387668,-122.015695,FALSE
Past Sale,Single Family Residential,730 Bamboo Dr,SUNNYVALE,CA,94086,1188000,4,2,SUNNYVALE,1754,6596,1970,2,Garage,,Sold,,,,,1188000,2016-05-26,"1,450,000",http://www.redfin.com/CA/Sunnyvale/730-Bamboo-Dr-94086/home/1855613,MLSListings Inc. (MLSLI),ML81582467,Intero Real Estate Services,N,Y,37.368673,-122.017949,FALSE
Past Sale,Single Family Residential,1581 Blackhawk Dr,SUNNYVALE,CA,94087,1668000,4,3,SUNNYVALE,1864,6039,1963,2,Garage,,Sold,,,,,1668000,2016-05-27,"1,840,000",http://www.redfin.com/CA/Sunnyvale/1581-Blackhawk-Dr-94087/home/760089,MLSListings Inc. (MLSLI),ML81582418,Keller Williams Realty-Silicon Valley,N,Y,37.342068,-122.02963,FALSE
Past Sale,Single Family Residential,363 Beemer Ave,SUNNYVALE,CA,94086,2243000,4,3,SUNNYVALE,2284,9200,2016,2,Garage,,Sold,,,,,2243000,2016-06-01,"2,243,000",http://www.redfin.com/CA/Sunnyvale/363-Beemer-Ave-94086/home/1630236,MLSListings Inc. (MLSLI),ML81588290,Vero Real Estate Services,N,Y,37.381136,-122.032196,FALSE
Past Sale,Single Family Residential,1491 Prince Edward Way,SUNNYVALE,CA,94087,2288800,4,2,SUNNYVALE,1973,13650,1960,2,Garage,,Sold,,,,,2288000,2016-06-03,"2,250,000",http://www.redfin.com/CA/Sunnyvale/1491-Prince-Edward-Way-94087/home/1083897,MLSListings Inc. (MLSLI),ML81582296,Alain Pinel Realtors,N,Y,37.345188,-122.038935,FALSE
Past Sale,Single Family Residential,634 Coleraine Ct,SUNNYVALE,CA,94087,1998000,5,4,SUNNYVALE,2908,8245,1961,2,Garage,,Sold,,,,,1998000,2016-06-06,"2,180,000",http://www.redfin.com/CA/Sunnyvale/634-Coleraine-Ct-94087/home/758966,MLSListings Inc. (MLSLI),ML81581860,Alain Pinel Realtors,N,Y,37.347279,-122.025019,FALSE
Past Sale,Single Family Residential,631 Spruce Dr,SUNNYVALE,CA,94086,1398000,5,2.5,SUNNYVALE,2149,6198,1971,2,Garage,,Sold,,,,,1398000,2016-06-08,"1,605,000",http://www.redfin.com/CA/Sunnyvale/631-Spruce-Dr-94086/home/670043,MLSListings Inc. (MLSLI),ML81583649,Intero Real Estate Services,N,Y,37.365847,-122.00443,FALSE
Past Sale,Single Family Residential,7 Oak Ct,SUNNYVALE,CA,94086,1875000,4,3.5,SUNNYVALE,3075,10000,1940,2,Garage,,Sold,,,,,1875000,2016-06-10,"1,800,000",http://www.redfin.com/CA/Sunnyvale/7-Oak-Ct-94086/home/1138079,MLSListings Inc. (MLSLI),ML81587210,Economic Concepts,N,Y,37.380448,-122.026673,FALSE
Past Sale,Single Family Residential,728 Peekskill Dr,SUNNYVALE,CA,94087,1898000,4,3,SUNNYVALE,2100,8232,1966,2,Garage,,Sold,,,,,1898000,2016-04-13,"2,039,801",http://www.redfin.com/CA/Sunnyvale/728-Peekskill-Dr-94087/home/743232,MLSListings Inc. (MLSLI),ML81577617,Coldwell Banker,N,Y,37.360524,-122.043294,FALSE
Past Sale,Single Family Residential,1617 Edmonton Ave,SUNNYVALE,CA,94087,1795000,4,2,SUNNYVALE,1770,11025,1958,2,Garage,,Sold,,,,,1795000,2016-04-12,"1,845,000",http://www.redfin.com/CA/Sunnyvale/1617-Edmonton-Ave-94087/home/1714023,MLSListings Inc. (MLSLI),ML81563430,KW Bay Area Estates,N,Y,37.3404754,-122.0566061,FALSE
Past Sale,Single Family Residential,1219 Mcintosh Ave,SUNNYVALE,CA,94087,1688000,4,2,SUNNYVALE,1752,8000,1960,2,Garage,,Sold,,,,,1688000,2016-04-11,"1,830,000",http://www.redfin.com/CA/Sunnyvale/1219-Mcintosh-Ave-94087/home/814455,MLSListings Inc. (MLSLI),ML81563110,Keller Williams Palo Alto,N,Y,37.354647,-122.049813,FALSE
Past Sale,Single Family Residential,904 W Olive Ave,SUNNYVALE,CA,94086,1450000,4,2,SUNNYVALE,1764,6015,1975,2,Garage,,Sold,,,,,1450000,2016-04-14,"1,560,000",http://www.redfin.com/CA/Sunnyvale/904-W-Olive-Ave-94086/home/1057334,MLSListings Inc. (MLSLI),ML81561850,Intero Real Estate Services,N,Y,37.371899,-122.044339,FALSE
Past Sale,Multi-Family (2-4 Unit),860 Coolidge Ave,SUNNYVALE,CA,94086,1570000,5,,SUNNYVALE,2312,6721,1976,2,Garage,,Sold,,,,,1570000,2016-04-26,"1,570,000",http://www.redfin.com/CA/Sunnyvale/860-Coolidge-Ave-94086/home/1561935,MLSListings Inc. (MLSLI),ML81566617,Brittain Commercial,N,Y,37.379619,-122.040259,FALSE
Past Sale,Single Family Residential,909 Hazelnut Ct,SUNNYVALE,CA,94087,1695000,4,2,SUNNYVALE,1806,9130,1953,2,,,Sold,,,,,1695000,2016-05-03,"1,700,000",http://www.redfin.com/CA/Sunnyvale/909-Hazelnut-Ct-94087/home/1592373,MLSListings Inc. (MLSLI),ML81566518,Coldwell Banker,N,Y,37.364212,-122.055143,FALSE
Past Sale,Single Family Residential,1186 Crandano Ct,SUNNYVALE,CA,94087,1550000,4,2,SUNNYVALE,1839,8028,1960,2,Garage,,Sold,,,,,1550000,2016-05-06,"1,760,000",http://www.redfin.com/CA/Sunnyvale/1186-Crandano-Ct-94087/home/1717796,MLSListings Inc. (MLSLI),ML81577823,Windermere Silicon Valley,N,Y,37.356131,-122.057344,FALSE
Past Sale,Single Family Residential,1425 Franchere Pl,SUNNYVALE,CA,94087,1649000,4,2,SUNNYVALE,1606,7596,1956,0,,,Sold,,,,,1649000,2016-05-10,"1,870,000",http://www.redfin.com/CA/Sunnyvale/1425-Franchere-Pl-94087/home/745944,MLSListings Inc. (MLSLI),ML81577386,Referral Realty,N,Y,37.347145,-122.054352,FALSE
Past Sale,Single Family Residential,1210 Muscat Ct,SUNNYVALE,CA,94087,1650000,4,3,SUNNYVALE,2027,7143,1957,2,Garage,,Sold,,,,,1650000,2016-05-06,"1,665,000",http://www.redfin.com/CA/Sunnyvale/1210-Muscat-Ct-94087/home/1723055,MLSListings Inc. (MLSLI),ML81577248,Alain Pinel Realtors,N,Y,37.355376,-122.052937,FALSE
Past Sale,Single Family Residential,1408 Lewiston Dr,SUNNYVALE,CA,94087,1698000,4,2,SUNNYVALE,1469,9792,1959,2,Garage,,Sold,,,,,1698000,2016-05-11,"1,905,000",http://www.redfin.com/CA/Sunnyvale/1408-Lewiston-Dr-94087/home/1106069,MLSListings Inc. (MLSLI),ML81578373,Sereno Group,N,Y,37.347719,-122.044106,FALSE
Past Sale,Single Family Residential,857 Revere Dr,SUNNYVALE,CA,94087,1848000,4,2,SUNNYVALE,2474,12580,1957,2,Garage,,Sold,,,,,1848000,2016-05-11,"2,200,000",http://www.redfin.com/CA/Sunnyvale/857-Revere-Dr-94087/home/880402,MLSListings Inc. (MLSLI),ML81579889,Intero Real Estate Services,N,Y,37.358896,-122.048462,FALSE
Past Sale,Single Family Residential,1176 W Iowa Ave,SUNNYVALE,CA,94086,1468000,4,2,SUNNYVALE,1536,6037,1967,2,Garage,,Sold,,,,,1468000,2016-05-31,"1,450,000",http://www.redfin.com/CA/Sunnyvale/1176-W-Iowa-Ave-94086/home/1801996,MLSListings Inc. (MLSLI),ML81581149,Sereno Group,N,Y,37.37683,-122.053939,FALSE
Past Sale,Single Family Residential,1602 Kennewick Dr,SUNNYVALE,CA,94087,1648000,4,2,SUNNYVALE,1768,8276,1959,2,Garage,,Sold,,,,,1648000,2016-06-02,"1,982,000",http://www.redfin.com/CA/Sunnyvale/1602-Kennewick-Dr-94087/home/1284403,MLSListings Inc. (MLSLI),ML81582407,Coldwell Banker,N,Y,37.341284,-122.047316,FALSE
Past Sale,Multi-Family (2-4 Unit),856 Coolidge Ave,SUNNYVALE,CA,94086,1570000,5,,SUNNYVALE,2312,7040,1976,2,Garage,,Sold,,,,,1570000,2016-06-02,"1,530,150",http://www.redfin.com/CA/Sunnyvale/856-Coolidge-Ave-94086/home/1494714,MLSListings Inc. (MLSLI),ML81566606,Brittain Commercial,N,Y,37.3795689,-122.040051,FALSE
Past Sale,Single Family Residential,1410 Kitimat Pl,SUNNYVALE,CA,94087,1650000,4,2,SUNNYVALE,1371,7980,1956,2,Garage,,Sold,,,,,1650000,2016-06-02,"1,765,195",http://www.redfin.com/CA/Sunnyvale/1410-Kitimat-Pl-94087/home/1061930,MLSListings Inc. (MLSLI),ML81581181,Taylor Properties,N,Y,37.347778,-122.050715,FALSE
Past Sale,Single Family Residential,863 Russet Dr,SUNNYVALE,CA,94087,1597000,4,2,SUNNYVALE,1856,6804,1966,2,Garage,,Sold,,,,,1597000,2016-06-02,"1,730,000",http://www.redfin.com/CA/Sunnyvale/863-Russet-Dr-94087/home/1576048,MLSListings Inc. (MLSLI),ML81581829,Legacy Real Estate & Associates,N,Y,37.3639102,-122.0398849,FALSE
Past Sale,Single Family Residential,250 CARBONERA Ave,SUNNYVALE,CA,94086,1875000,4,3,SUNNYVALE,2288,7758,1953,2,Garage,,Sold,,,,,1788000,2016-06-07,"1,828,000",http://www.redfin.com/CA/Sunnyvale/250-Carbonera-Ave-94086/home/102394548,MLSListings Inc. (MLSLI),ML81579192,Choice Properties INC,N,Y,37.3792486,-122.053269,FALSE
Past Sale,Single Family Residential,252 Corral Ave,SUNNYVALE,CA,94086,1549000,4,3.5,SUNNYVALE,2479,5820,1962,2,Garage,,Sold,,,,,1549000,2016-06-10,"1,701,000",http://www.redfin.com/CA/Sunnyvale/252-Corral-Ave-94086/home/659273,MLSListings Inc. (MLSLI),ML81583629,Keller Williams Palo Alto,N,Y,37.3792228,-122.0524461,FALSE
Past Sale,Single Family Residential,1028 Fig Ave,SUNNYVALE,CA,94087,1488000,4,2.5,SUNNYVALE,1584,6000,1954,2,Garage,,Sold,,,,,1488000,2016-01-22,"1,675,000",http://www.redfin.com/CA/Sunnyvale/1028-Fig-Ave-94087/home/651913,MLSListings Inc. (MLSLI),ML81533992,Intero Real Estate Services,N,Y,37.362668,-122.056936,FALSE
Past Sale,Multi-Family (5+ Unit),1162 Sunnyvale Saratoga Rd,SUNNYVALE,CA,94087,3550000,4,,SUNNYVALE,7200,26220,1952,12,Garage,,Sold,,,,,3550000,2016-02-25,"4,400,000",http://www.redfin.com/CA/Sunnyvale/1162-Sunnyvale-Saratoga-Rd-94087/home/1711543,MLSListings Inc. (MLSLI),ML81534613,Colliers Parrish International,N,Y,37.354406,-122.031647,FALSE
Past Sale,Multi-Family (2-4 Unit),701 E Homestead Rd,SUNNYVALE,CA,94087,1698000,5,,SUNNYVALE,2624,8001,1970,3,Garage,,Sold,,,,,1698000,2016-03-23,"1,950,000",http://www.redfin.com/CA/Sunnyvale/701-E-Homestead-Rd-94087/unit-B/home/1593754,MLSListings Inc. (MLSLI),ML81564414,KW Bay Area Estates,N,Y,37.337931,-122.023061,FALSE
Past Sale,Single Family Residential,942 Eton Way,SUNNYVALE,CA,94087,1488000,4,2,SUNNYVALE,1652,6336,1966,2,Garage,,Sold,,,,,1488000,2016-01-13,"1,675,000",http://www.redfin.com/CA/Sunnyvale/942-Eton-Way-94087/home/1226815,MLSListings Inc. (MLSLI),ML81533993,Keller Williams Realty - Cupertino,N,Y,37.344615,-122.011072,FALSE
Past Sale,Single Family Residential,898 S Mary Ave,SUNNYVALE,CA,94087,1398000,4,3,SUNNYVALE,1784,6799,1962,2,Garage,,Sold,,,,,1398000,2016-03-24,"1,400,000",http://www.redfin.com/CA/Sunnyvale/898-S-Mary-Ave-94087/home/1376308,MLSListings Inc. (MLSLI),ML81561922,Coldwell Banker,N,Y,37.362616,-122.050035,FALSE
Past Sale,Single Family Residential,458 Purisima Ave,SUNNYVALE,CA,94086,1675000,5,3,SUNNYVALE,2056,6386,1956,2,Garage,,Sold,,,,,1675000,2016-03-11,"1,820,000",http://www.redfin.com/CA/Sunnyvale/458-Purisima-Ave-94086/home/689014,MLSListings Inc. (MLSLI),ML81548468,Alain Pinel Realtors,N,Y,37.372515,-122.04166,FALSE
Past Sale,Multi-Family (2-4 Unit),267 Roosevelt Ave,SUNNYVALE,CA,94086,1068000,4,,SUNNYVALE,1488,6970,1950,1,Garage,,Sold,,,,2015-10-27,1100000,2016-04-15,"960,000",http://www.redfin.com/CA/Sunnyvale/267-Roosevelt-Ave-94086/home/1799230,MLSListings Inc. (MLSLI),ML81515358,RE/MAX Real Estate Services,N,Y,37.381574,-122.022268,FALSE
Past Sale,Single Family Residential,1490 Lewiston Dr,SUNNYVALE,CA,94087,1998000,4,3,SUNNYVALE,2477,8243,2008,2,Garage,,Sold,,,,,1998000,2016-02-25,"2,335,000",http://www.redfin.com/CA/Sunnyvale/1490-Lewiston-Dr-94087/home/1075301,MLSListings Inc. (MLSLI),ML81548335,Maxreal,N,Y,37.345295,-122.044856,FALSE
Past Sale,Single Family Residential,748 Chemowa Ct,SUNNYVALE,CA,94087,1899000,4,2,SUNNYVALE,1840,7444,1961,2,Garage,,Sold,,,,,1899000,2016-04-15,"2,100,000",http://www.redfin.com/CA/Sunnyvale/748-Chemowa-Ct-94087/home/1673599,MLSListings Inc. (MLSLI),ML81563642,Sotheby's Int'l Realty-Rancho,N,Y,37.346454,-122.043203,FALSE
Past Sale,Single Family Residential,955 Blair Ave,SUNNYVALE,CA,94087,1448000,4,2,SUNNYVALE,1754,5900,1955,2,Garage,,Sold,,,,,1448000,2016-01-26,"1,650,000",http://www.redfin.com/CA/Sunnyvale/955-Blair-Ave-94087/home/1531915,MLSListings Inc. (MLSLI),ML81534636,Sereno Group,N,Y,37.370543,-122.047365,FALSE
Past Sale,Single Family Residential,383 Sara Ave,SUNNYVALE,CA,94086,1699000,4,2.5,SUNNYVALE,2170,7992,1962,2,Garage,,Sold,,,,,1699000,2016-04-16,"1,910,000",http://www.redfin.com/CA/Sunnyvale/383-Sara-Ave-94086/home/1223543,MLSListings Inc. (MLSLI),ML81562100,Referral Realty,N,Y,37.376294,-122.046242,FALSE
Past Sale,Single Family Residential,333 Hiddenlake Dr,Sunnyvale,CA,94089,,4,3,94089,1507,,1957,,,,,,,,,,2016-01-25,"517,000",http://www.redfin.com/CA/Sunnyvale/333-Hiddenlake-Dr-94089/home/820046,,,,N,Y,37.398358,-122.007695,
Past Sale,Townhouse,588 Saco Ter,SUNNYVALE,CA,94089,999000,4,3,SUNNYVALE,1727,2591,2008,60,Garage,,Sold,,,,,999000,2016-03-08,"1,185,000",http://www.redfin.com/CA/Sunnyvale/588-Saco-Ter-94089/home/17292003,MLSListings Inc. (MLSLI),ML81546055,Intero Real Estate Services,N,Y,37.400722,-122.012581,FALSE
Past Sale,Townhouse,948 E Duane Ave #100,SUNNYVALE,CA,94085,1069000,4,3.5,SUNNYVALE,1882,1415,2011,60,Garage,,Sold,,,,,1069000,2016-03-09,"1,130,000",http://www.redfin.com/CA/Sunnyvale/948-E-Duane-Ave-94085/unit-100/home/41395977,MLSListings Inc. (MLSLI),ML81548599,Intero Real Estate Services,N,Y,37.3881948,-122.0031523,FALSE
Past Sale,Townhouse,1009 Jena Ter,SUNNYVALE,CA,94089,1099000,4,3.5,SUNNYVALE,1725,1459,2007,25,Garage,,Sold,,,,,1099000,2016-03-11,"1,200,000",http://www.redfin.com/CA/Sunnyvale/1009-Jena-Ter-94089/home/12178796,MLSListings Inc. (MLSLI),ML81561555,Intero Real Estate Services,N,Y,37.3979966,-122.0148903,FALSE
Past Sale,Multi-Family (2-4 Unit),852 Coolidge Ave,SUNNYVALE,CA,94086,1570000,5,,SUNNYVALE,2312,7039,1976,1,Garage,,Sold,,,,,1570000,2016-02-11,"1,570,000",http://www.redfin.com/CA/Sunnyvale/852-Coolidge-Ave-94086/home/934971,MLSListings Inc. (MLSLI),ML81548595,Brittain Commercial,N,Y,37.379524,-122.039838,FALSE
Past Sale,Townhouse,192 Anaheim Ter,SUNNYVALE,CA,94086,998000,4,2.5,SUNNYVALE,1919,2395,2006,2,Garage,,Sold,,,,,998000,2016-02-29,"1,216,000",http://www.redfin.com/CA/Sunnyvale/192-Anaheim-Ter-94086/home/2125175,MLSListings Inc. (MLSLI),ML81548661,Coldwell Banker,N,Y,37.37871,-122.02891,FALSE
Past Sale,Multi-Family (2-4 Unit),844-846 SW Coolidge Ave,SUNNYVALE,CA,94086,1570000,5,,SUNNYVALE,2312,7039,1976,1,Garage,,Sold,,,,,1570000,2016-03-08,"1,550,000",http://www.redfin.com/CA/Sunnyvale/846-Coolidge-Ave-94086/home/102547582,MLSListings Inc. (MLSLI),ML81546268,Brittain Commercial,N,Y,37.3795175,-122.0394555,FALSE
Past Sale,Single Family Residential,684 Windsor Ter,SUNNYVALE,CA,94087,1688000,4,2.5,SUNNYVALE,2314,4042,1995,2,Garage,,Sold,,,,,1688000,2016-03-24,"1,750,000",http://www.redfin.com/CA/Sunnyvale/684-Windsor-Ter-94087/home/1346432,MLSListings Inc. (MLSLI),ML81549900,Maxreal Property,N,Y,37.3524294,-122.0407606,FALSE
Past Sale,Single Family Residential,1137 Myrtle Dr,SUNNYVALE,CA,94086,1395000,4,2,SUNNYVALE,1674,5524,1955,2,,,Sold,,,,,1395000,2016-03-03,"1,395,000",http://www.redfin.com/CA/Sunnyvale/1137-Myrtle-Dr-94086/home/667382,MLSListings Inc. (MLSLI),ML81547795,Bayview Residential Brokerage,N,Y,37.361284,-121.998995,FALSE
Past Sale,Single Family Residential,714 Londonderry Dr,SUNNYVALE,CA,94087,1795000,4,3.5,SUNNYVALE,2341,5593,2002,2,Garage,,Sold,,,,,1795000,2016-02-09,"2,000,000",http://www.redfin.com/CA/Sunnyvale/714-Londonderry-Dr-94087/home/1513348,MLSListings Inc. (MLSLI),ML81546897,Keller Williams San Jose Gateway,N,Y,37.338249,-122.022001,FALSE
Past Sale,Single Family Residential,108 Avon Ter (Unable to map),SUNNYVALE,CA,94087,1488000,4,2.5,SUNNYVALE,1831,3101,2013,2,Garage,,Sold,,,,,1488000,2016-02-23,"1,616,000",http://www.redfin.com/CA/Sunnyvale/108-Avon-Ter-94087/home/95954606,MLSListings Inc. (MLSLI),ML81546811,Deleon Realty,N,Y,37.350847,-122.0313065,FALSE
Past Sale,Single Family Residential,509 Kinross Ct,SUNNYVALE,CA,94087,1650000,5,3,SUNNYVALE,2469,6829,1964,2,Garage,,Sold,,,,,1650000,2016-03-17,"1,832,000",http://www.redfin.com/CA/Sunnyvale/509-Kinross-Ct-94087/home/1580421,MLSListings Inc. (MLSLI),ML81546794,Intero Real Estate Services,N,Y,37.340003,-122.028957,FALSE
Past Sale,Single Family Residential,1191 Tucson Ave,SUNNYVALE,CA,94089,839000,5,3.5,SUNNYVALE,2104,5952,1955,1,Garage,,Sold,,,,,839000,2016-03-11,"870,000",http://www.redfin.com/CA/Sunnyvale/1191-Tucson-Ave-94089/home/1101123,MLSListings Inc. (MLSLI),ML81548929,RE/MAX Real Estate Services,N,Y,37.394024,-121.992479,FALSE
Past Sale,Single Family Residential,1319 Dunnock Way,SUNNYVALE,CA,94087,1768000,5,3.5,SUNNYVALE,2644,7272,1963,2,Garage,,Sold,,,,,1768000,2016-02-22,"1,768,000",http://www.redfin.com/CA/Sunnyvale/1319-Dunnock-Way-94087/home/1438075,MLSListings Inc. (MLSLI),ML81534015,Keller Williams Realty - Cupertino,N,Y,37.351219,-122.02536,FALSE
Past Sale,Single Family Residential,441 S Sunnyvale Ave,SUNNYVALE,CA,94086,1340000,4,3,SUNNYVALE,1628,2910,2015,2,Garage,,Sold,,,,,1340000,2016-04-01,"1,340,000",http://www.redfin.com/CA/Sunnyvale/441-S-Sunnyvale-Ave-94086/home/1379530,MLSListings Inc. (MLSLI),ML81578092,Intero Real Estate Services,N,Y,37.371825,-122.031015,FALSE
Past Sale,Multi-Family (2-4 Unit),848 Coolidge Ave,SUNNYVALE,CA,94086,1570000,5,,SUNNYVALE,2312,7039,1976,2,Garage,,Sold,,,,,1570000,2016-04-05,"1,552,000",http://www.redfin.com/CA/Sunnyvale/848-Coolidge-Ave-94086/home/1785451,MLSListings Inc. (MLSLI),ML81548540,Brittain Commercial,N,Y,37.37948,-122.039625,FALSE
Past Sale,Single Family Residential,1017 Lakehaven Dr,SUNNYVALE,CA,94089,1850000,5,4.5,SUNNYVALE,3143,8100,2016,2,Garage,,Sold,,,,2016-03-15,1998000,2016-04-12,"1,900,000",http://www.redfin.com/CA/Sunnyvale/1017-Lakehaven-Dr-94089/home/606629,MLSListings Inc. (MLSLI),ML81551000,Coldwell Banker,N,Y,37.396331,-121.997692,FALSE
Past Sale,Single Family Residential,791 Steuben Dr,SUNNYVALE,CA,94087,1698000,4,2.5,SUNNYVALE,2221,7954,1976,2,Garage,,Sold,,,,,1698000,2016-04-15,"1,880,000",http://www.redfin.com/CA/Sunnyvale/791-Steuben-Dr-94087/home/1079649,MLSListings Inc. (MLSLI),ML81565291,Alain Pinel Realtors,N,Y,37.355689,-122.045063,FALSE
Past Sale,Single Family Residential,116 Waverly St,SUNNYVALE,CA,94086,1599000,4,3.5,SUNNYVALE,1952,6000,1943,2,Garage,,Sold,,,,,1599000,2016-03-14,"1,595,000",http://www.redfin.com/CA/Sunnyvale/116-Waverly-St-94086/home/1044688,MLSListings Inc. (MLSLI),ML81548445,Home Advantage Corp.,N,Y,37.379824,-122.036362,FALSE
Past Sale,Single Family Residential,1426 Pointe Claire Ct,SUNNYVALE,CA,94087,1688000,4,3,SUNNYVALE,2025,9997,1962,2,Garage,,Sold,,,,,1688000,2016-04-02,"2,000,000",http://www.redfin.com/CA/Sunnyvale/1426-Pointe-Claire-Ct-94087/home/1766615,MLSListings Inc. (MLSLI),ML81578273,Maxreal,N,Y,37.347335,-122.039277,FALSE
Past Sale,Single Family Residential,1358 Frontenac Ave,SUNNYVALE,CA,94087,1595000,4,2,SUNNYVALE,1371,6955,1955,2,Garage,,Sold,,,,,1595000,2016-04-15,"1,835,000",http://www.redfin.com/CA/Sunnyvale/1358-Frontenac-Ave-94087/home/1164637,MLSListings Inc. (MLSLI),ML81563799,Coldwell Banker,N,Y,37.3497709,-122.052971,FALSE
Past Sale,Single Family Residential,1632 Goldfinch Way,SUNNYVALE,CA,94087,1598800,4,2.5,SUNNYVALE,1940,5970,1965,2,Garage,,Sold,,,,,1598800,2016-04-15,"1,850,000",http://www.redfin.com/CA/Sunnyvale/1632-Goldfinch-Way-94087/home/759323,MLSListings Inc. (MLSLI),ML81565463,Coldwell Banker,N,Y,37.3399498,-122.0205379,FALSE
Past Sale,Multi-Family (2-4 Unit),1690 &1692 Blue Jay Dr,SUNNYVALE,CA,94087,1500000,4,,SUNNYVALE,1963,6098,1960,1,Garage,,Sold,,,,2016-01-04,1525000,2016-02-23,"1,440,000",http://www.redfin.com/CA/Sunnyvale/1690-Blue-Jay-Dr-94087/home/816911,MLSListings Inc. (MLSLI),ML81520913,Homeland Properties,N,Y,37.338019,-122.0286591,FALSE
Past Sale,Single Family Residential,860 Muender,Sunnyvale,CA,94086,1100000,4,2,Sunnyvale,1308,6351,1924,1,Garage,,Sold,,,,,,2016-03-25,"1,050,000",http://www.redfin.com/CA/Sunnyvale/860-Muender-Ave-94086/home/1339906,"MetroList Services, Inc",15068699,Realty World-Connect,N,Y,37.3803568,-122.0399907,FALSE
Past Sale,Single Family Residential,749 Carolina Ave,SUNNYVALE,CA,94085,899888,4,2.5,SUNNYVALE,1650,6085,1953,0,,,Sold,,,,,899888,2016-04-15,"1,110,000",http://www.redfin.com/CA/Sunnyvale/749-Carolina-Ave-94085/home/1346523,MLSListings Inc. (MLSLI),ML81563169,Coldwell Banker,N,Y,37.393703,-122.0168167,FALSE
Past Sale,Single Family Residential,1156 S Bernardo Ave,SUNNYVALE,CA,94087,1649000,4,2,SUNNYVALE,2065,7631,1963,2,Garage,,Sold,,,,,1649000,2016-03-18,"1,800,000",http://www.redfin.com/CA/Sunnyvale/1156-S-Bernardo-Ave-94087/home/1317311,MLSListings Inc. (MLSLI),ML81549759,Alain Pinel Realtors,N,Y,37.3577191,-122.0593368,FALSE
Past Sale,Single Family Residential,1065 Silvertip Way,SUNNYVALE,CA,94086,1498000,4,3,SUNNYVALE,2726,6059,1974,2,Garage,,Sold,,,,,1498000,2016-03-17,"1,725,000",http://www.redfin.com/CA/Sunnyvale/1065-Silvertip-Way-94086/home/1448015,MLSListings Inc. (MLSLI),ML81550099,Intero Real Estate Services,N,Y,37.3626829,-122.003536,FALSE
Past Sale,Single Family Residential,545 E Olive Ave,SUNNYVALE,CA,94086,1395000,4,3,SUNNYVALE,1569,5610,1949,2,Garage,,Sold,,,,,1395000,2016-03-29,"1,451,000",http://www.redfin.com/CA/Sunnyvale/545-E-Olive-Ave-94086/home/1802752,MLSListings Inc. (MLSLI),ML81562091,Intero Real Estate Services,N,Y,37.3700552,-122.0239277,FALSE
Past Sale,Single Family Residential,813 Ticonderoga Dr,SUNNYVALE,CA,94087,1598000,4,2,SUNNYVALE,2569,7601,1961,1,Garage,,Sold,,,,,1598000,2016-04-11,"1,650,000",http://www.redfin.com/CA/Sunnyvale/813-Ticonderoga-Dr-94087/home/644392,MLSListings Inc. (MLSLI),ML81564396,Sereno Group,N,Y,37.3552589,-122.046665,FALSE
Past Sale,Single Family Residential,752 Silver Pine Ct,SUNNYVALE,CA,94086,1689000,5,2.5,SUNNYVALE,2149,9000,1970,2,Garage,,Sold,,,,,1689000,2016-04-08,"1,775,000",http://www.redfin.com/CA/Sunnyvale/752-Silver-Pine-Ct-94086/home/1835447,MLSListings Inc. (MLSLI),ML81563228,Sereno Group,N,Y,37.3650452,-122.0065039,FALSE
Past Sale,Single Family Residential,1199 Pimento Ave,SUNNYVALE,CA,94087,1938000,4,2,SUNNYVALE,1945,9200,1961,2,Garage,,Sold,,,,,1938000,2016-04-01,"1,970,000",http://www.redfin.com/CA/Sunnyvale/1199-Pimento-Ave-94087/home/660434,MLSListings Inc. (MLSLI),ML81562087,Sereno Group,N,Y,37.3553652,-122.0477075,FALSE
Past Sale,Multi-Family (2-4 Unit),437 S Pastoria Ave,SUNNYVALE,CA,94086,1400000,5,,SUNNYVALE,2589,6363,1957,1,Garage,,Sold,,,,,1400000,2016-03-18,"1,440,000",http://www.redfin.com/CA/Sunnyvale/437-S-Pastoria-Ave-94086/home/1602737,MLSListings Inc. (MLSLI),ML81534474,Premium Properties,N,Y,37.3725922,-122.0403555,FALSE
Past Sale,Single Family Residential,798 W Iowa Ave,SUNNYVALE,CA,94086,1678000,4,2.5,SUNNYVALE,2275,9596,1955,2,Garage,,Sold,,,,,1678000,2016-03-29,"1,700,000",http://www.redfin.com/CA/Sunnyvale/798-W-Iowa-Ave-94086/home/627783,MLSListings Inc. (MLSLI),ML81549622,Alain Pinel Realtors,N,Y,37.3738747,-122.0392915,FALSE
Past Sale,Single Family Residential,909 Reed Ave,SUNNYVALE,CA,94086,788000,4,2,SUNNYVALE,1659,7200,1968,2,Garage,,Sold,,,,,788000,2016-04-13,"890,000",http://www.redfin.com/CA/Sunnyvale/909-Reed-Ave-94086/home/1259943,MLSListings Inc. (MLSLI),ML81545369,Properties & Beyond,N,Y,37.3669488,-122.012746,FALSE
Past Sale,Single Family Residential,816 Tamarack Ln,SUNNYVALE,CA,94086,1198000,5,2,SUNNYVALE,1549,5998,1955,2,Garage,,Sold,,,,,1198000,2016-03-25,"1,200,000",http://www.redfin.com/CA/Sunnyvale/816-Tamarack-Ln-94086/home/1103387,MLSListings Inc. (MLSLI),ML81550633,Pacific Union International,N,Y,37.361259,-122.0006996,FALSE
Past Sale,Single Family Residential,743 Bamboo Dr,SUNNYVALE,CA,94086,1298000,4,2.5,SUNNYVALE,2100,6000,1970,2,Garage,,Sold,,,,,1298000,2016-04-08,"1,580,000",http://www.redfin.com/CA/Sunnyvale/743-Bamboo-Dr-94086/home/1592555,MLSListings Inc. (MLSLI),ML81551052,Keller Williams Realty - Cupertino,N,Y,37.3690982,-122.0174534,FALSE
Past Sale,Single Family Residential,672 W Remington Dr,SUNNYVALE,CA,94087,1399000,4,2,SUNNYVALE,1755,7244,1959,2,Garage,,Sold,,,,,1399000,2016-02-24,"1,625,000",http://www.redfin.com/CA/Sunnyvale/672-W-Remington-Dr-94087/home/656836,MLSListings Inc. (MLSLI),ML81546798,Pacific Union International,N,Y,37.3591869,-122.0403368,FALSE
Past Sale,Townhouse,560 Saco Ter,SUNNYVALE,CA,94089,998888,4,3,SUNNYVALE,1727,,2008,2,Garage,,Sold,,,,,998888,2016-02-22,"1,180,000",http://www.redfin.com/CA/Sunnyvale/560-Saco-Ter-94089/home/17292146,MLSListings Inc. (MLSLI),ML81547158,Coldwell Banker,N,Y,37.400052,-122.01171,FALSE
Past Sale,Single Family Residential,417 Pin Oak Dr,SUNNYVALE,CA,94086,1299000,4,2.5,SUNNYVALE,1759,7995,1967,2,Garage,,Sold,,,,,1299000,2016-03-08,"1,625,000",http://www.redfin.com/CA/Sunnyvale/417-Pin-Oak-Dr-94086/home/1681007,MLSListings Inc. (MLSLI),ML81548471,Coldwell Banker,N,Y,37.3693713,-122.010935,FALSE
Past Sale,Single Family Residential,1143 Bodega Dr,SUNNYVALE,CA,94086,1489000,4,2,SUNNYVALE,1947,6390,1966,2,Garage,,Sold,,,,2015-08-13,1699000,2016-01-05,"1,580,000",http://www.redfin.com/CA/Sunnyvale/1143-Bodega-Dr-94086/home/1228029,MLSListings Inc. (MLSLI),ML81486051,Coldwell Banker,N,Y,37.3829239,-122.0501396,FALSE
Past Sale,Single Family Residential,323 Stowell Ave,SUNNYVALE,CA,94085,1588000,5,3.5,SUNNYVALE,2873,5200,1942,2,Garage,,Sold,,,,,1588000,2016-01-05,"1,600,000",http://www.redfin.com/CA/SUNNYVALE/323-STOWELL-AVE-94085/home/743404,MLSListings Inc. (MLSLI),ML81534013,Coldwell Banker,N,Y,37.385005,-122.028328,FALSE
Past Sale,Single Family Residential,626 Sheraton Dr,SUNNYVALE,CA,94087,1699000,4,2,SUNNYVALE,1755,7200,1959,2,Garage,,Sold,,,,,1699000,2016-04-19,"1,699,000",http://www.redfin.com/CA/Sunnyvale/626-Sheraton-Dr-94087/home/656524,MLSListings Inc. (MLSLI),ML81563155,Coldwell Banker,N,Y,37.3580112,-122.0379314,FALSE
Past Sale,Single Family Residential,1445 Floyd Ave,SUNNYVALE,CA,94087,1495000,4,2,SUNNYVALE,1804,6682,1960,2,Garage,,Sold,,,,,1495000,2015-12-24,"1,700,000",http://www.redfin.com/CA/Sunnyvale/1445-Floyd-Ave-94087/home/1754383,MLSListings Inc. (MLSLI),ML81522310,Intero Real Estate Services,N,Y,37.347398,-122.026811,FALSE
Past Sale,Single Family Residential,1029 Blazingwood Dr,SUNNYVALE,CA,94089,798000,4,2,SUNNYVALE,1382,5354,1955,1,Garage,,Sold,,,,,798000,2016-01-20,"810,000",http://www.redfin.com/CA/Sunnyvale/1029-Blazingwood-Dr-94089/home/1842985,MLSListings Inc. (MLSLI),ML81522938,Pathmark Realty Corporation,N,Y,37.3946442,-121.9953653,FALSE
Past Sale,Single Family Residential,1676 Francolin Ter,Sunnyvale,CA,94087,,4,3,94087,1763,,2007,,,,,,,,,,2016-01-27,"1,550,000",http://www.redfin.com/CA/Sunnyvale/1676-Francolin-Ter-94087/home/12181084,,,,N,Y,37.338303,-122.022211,
Past Sale,Single Family Residential,1478 Teal Dr,SUNNYVALE,CA,94087,1088000,4,2,SUNNYVALE,1568,6993,1961,2,Garage,,Sold,,,,,1088000,2016-01-20,"1,440,000",http://www.redfin.com/CA/Sunnyvale/1478-Teal-Dr-94087/home/663915,MLSListings Inc. (MLSLI),ML81534634,Alain Pinel Realtors,N,Y,37.3458309,-122.001915,FALSE
Past Sale,Single Family Residential,1046 Bradford Dr,SUNNYVALE,CA,94089,788888,4,1,SUNNYVALE,1260,5250,1952,1,Garage,,Sold,,,,,788888,2016-01-26,"830,000",http://www.redfin.com/CA/Sunnyvale/1046-Bradford-Dr-94089/home/1601413,MLSListings Inc. (MLSLI),ML81514044,Century 21 M&M and Associates,N,Y,37.4015429,-122.025732,FALSE
Past Sale,Single Family Residential,1617 Wright Ave,Sunnyvale,CA,94087,,4,2,94087,1770,,1958,,,,,,,,,,2016-01-13,"1,540,000",http://www.redfin.com/CA/Sunnyvale/1617-Wright-Ave-94087/home/1815156,,,,N,Y,37.340387,-122.055235,
Past Sale,Single Family Residential,577 Cherrywood Dr,SUNNYVALE,CA,94087,1750000,4,3,SUNNYVALE,1786,4679,1995,2,Garage,,Sold,,,,,1750000,2016-01-29,"1,700,000",http://www.redfin.com/CA/Sunnyvale/577-Cherrywood-Dr-94087/home/1137918,MLSListings Inc. (MLSLI),ML81533103,Intero Real Estate Services,N,Y,37.3643471,-122.0359549,FALSE
Past Sale,Single Family Residential,1556 Magpie Ln,SUNNYVALE,CA,94087,1498000,4,2,SUNNYVALE,1525,6621,1961,2,Garage,,Sold,,,,,1498000,2015-09-21,"1,590,000",http://www.redfin.com/CA/Sunnyvale/1556-Magpie-Ln-94087/home/762590,MLSListings Inc. (MLSLI),ML81501232,Intero Real Estate Services,N,Y,37.34347,-122.015842,FALSE
Past Sale,Single Family Residential,932 Marion Way,SUNNYVALE,CA,94087,1888000,5,4.5,SUNNYVALE,3111,8649,2015,2,Garage,,Sold,,,,,1888000,2015-12-04,"1,850,000",http://www.redfin.com/CA/Sunnyvale/932-Marion-Way-94087/home/829175,MLSListings Inc. (MLSLI),ML81513775,Keller Williams Realty - Cupertino,N,Y,37.345188,-122.013988,FALSE
Past Sale,Single Family Residential,1650 Meadowlark Ln,SUNNYVALE,CA,94087,1438000,4,2.5,SUNNYVALE,2188,6567,1958,2,Garage,,Sold,,,,,1438000,2015-12-15,"1,428,000",http://www.redfin.com/CA/Sunnyvale/1650-Meadowlark-Ln-94087/home/1226277,MLSListings Inc. (MLSLI),ML81517895,Keller Williams Realty - Cupertino,N,Y,37.3402198,-122.0130887,FALSE
Past Sale,Single Family Residential,798 S Wolfe Rd,SUNNYVALE,CA,94086,1249800,4,2,SUNNYVALE,2108,6599,1964,2,Garage,,Sold,,,,,1199900,2015-12-31,"1,249,800",http://www.redfin.com/CA/Sunnyvale/798-S-Wolfe-Rd-94086/home/1240900,MLSListings Inc. (MLSLI),ML81497856,Intero Real Estate Services,N,Y,37.362674,-122.013852,FALSE
Past Sale,Single Family Residential,832 Lusterleaf Dr,SUNNYVALE,CA,94086,1348000,4,2.5,SUNNYVALE,2204,6634,1966,2,Garage,,Sold,,,,,1348000,2015-12-30,"1,505,000",http://www.redfin.com/CA/Sunnyvale/832-Lusterleaf-Dr-94086/home/1240694,MLSListings Inc. (MLSLI),ML81534633,Keller Williams Realty - Cupertino,N,Y,37.361568,-122.014838,FALSE
Past Sale,Multi-Family (2-4 Unit),232-234 W California Ave,SUNNYVALE,CA,94086,1088000,4,,SUNNYVALE,1701,10317,1958,4,Garage,,Sold,,,,,1088000,2015-10-08,"1,100,000",http://www.redfin.com/CA/Sunnyvale/234-W-California-AVE-94086/home/97671320,MLSListings Inc. (MLSLI),ML81513599,DNH Realty Solutions,N,Y,37.3811199,-122.0307088,FALSE
Past Sale,Multi-Family (2-4 Unit),1268 Gainsborough Dr,Sunnyvale,CA,94087,,,,94087,2900,,1966,,,,,,,,,,2015-10-09,"1,700,000",http://www.redfin.com/CA/Sunnyvale/1268-Gainsborough-Dr-94087/home/644468,,,,N,Y,37.353501,-122.030098,
Past Sale,Single Family Residential,565 Loch Lomond Ct,SUNNYVALE,CA,94087,1798888,5,3,SUNNYVALE,3080,10019,1986,3,Garage,,Sold,,,,,1798888,2015-10-19,"2,050,000",http://www.redfin.com/CA/Sunnyvale/565-Loch-Lomond-Ct-94087/home/759284,MLSListings Inc. (MLSLI),ML81513072,Alain Pinel Realtors,N,Y,37.338364,-122.026526,FALSE
Past Sale,Single Family Residential,1599 Bittern Dr,SUNNYVALE,CA,94087,1488000,4,2,SUNNYVALE,1780,6068,1963,2,Garage,,Sold,,,,,1488000,2015-11-03,"1,520,000",http://www.redfin.com/CA/Sunnyvale/1599-Bittern-Dr-94087/home/610693,MLSListings Inc. (MLSLI),ML81518798,Sereno Group,N,Y,37.341306,-122.030517,FALSE
Past Sale,Single Family Residential,451 Cumulus Ave,SUNNYVALE,CA,94087,1968000,6,4,SUNNYVALE,3113,7143,1999,3,Garage,,Sold,,,,,1968000,2015-12-17,"1,968,000",http://www.redfin.com/CA/Sunnyvale/451-Cumulus-Ave-94087/home/1410978,MLSListings Inc. (MLSLI),ML81521382,Intero Real Estate Services,N,Y,37.361699,-122.028641,FALSE
Past Sale,Townhouse,1044 Jena Ter,SUNNYVALE,CA,94089,1150000,4,3.5,SUNNYVALE,1725,1287,2007,2,Garage,,Sold,,,,2015-08-21,1250000,2015-09-23,"1,188,888",http://www.redfin.com/CA/Sunnyvale/1044-Jena-Ter-94089/home/12178363,MLSListings Inc. (MLSLI),ML81498451,Intero Real Estate Services,N,Y,37.3989183,-122.0151267,FALSE
Past Sale,Townhouse,319 Santa Diana Ter (Unable to map),SUNNYVALE,CA,94085,1178000,4,3.5,SUNNYVALE,1795,972,2015,2,Garage,,Sold,,,,,1178000,2015-11-12,"1,204,063",http://www.redfin.com/CA/Sunnyvale/319-Santa-Diana-Ter-94085/home/92720640,MLSListings Inc. (MLSLI),ML81499943,"Summerhill Brokerage, Inc.",N,Y,37.3818827,-122.0179236,FALSE
Past Sale,Single Family Residential,742 Lakewood Dr,SUNNYVALE,CA,94089,1095000,4,4,SUNNYVALE,2544,6098,2007,2,Garage,,Sold,,,,2015-08-18,1195000,2015-12-16,"1,000,000",http://www.redfin.com/CA/Sunnyvale/742-Lakewood-Dr-94089/home/584165,MLSListings Inc. (MLSLI),ML81470751,SkyGroup Realty Inc.,N,Y,37.394027,-122.004291,FALSE
Past Sale,Multi-Family (2-4 Unit),550 N Fair Oaks Ave,Sunnyvale,CA,94085,,,,94085,11794,,1962,,,,,,,,,,2015-12-16,"4,655,000",http://www.redfin.com/CA/Sunnyvale/550-N-Fair-Oaks-Ave-94085/home/822042,,,,N,Y,37.387458,-122.014894,
Past Sale,Single Family Residential,1229 Rousseau Dr,SUNNYVALE,CA,94087,1988000,5,4,SUNNYVALE,3100,7160,1968,2,Garage,,Sold,,,,,1988000,2015-12-02,"2,175,000",http://www.redfin.com/CA/Sunnyvale/1229-Rousseau-Dr-94087/home/1414517,MLSListings Inc. (MLSLI),ML81521407,Keller Williams Realty - Cupertino,N,Y,37.353775,-122.021195,FALSE
Past Sale,Single Family Residential,1202 VAN DYCK Dr,SUNNYVALE,CA,94087,1595000,4,2,SUNNYVALE,1883,6535,1966,2,,,Sold,,,,,1595000,2015-09-24,"1,460,000",http://www.redfin.com/CA/Sunnyvale/1202-Van-Dyck-Dr-94087/home/663351,MLSListings Inc. (MLSLI),ML81496981,Altas Realty,N,Y,37.354917,-122.01887,FALSE
Past Sale,Single Family Residential,708 Londonderry Dr,SUNNYVALE,CA,94087,1598000,5,2.5,SUNNYVALE,2216,7208,1969,2,Garage,,Sold,,,,,1598000,2015-09-30,"1,630,000",http://www.redfin.com/CA/Sunnyvale/708-Londonderry-Dr-94087/home/1739655,MLSListings Inc. (MLSLI),ML81500439,Referral Realty,N,Y,37.338223,-122.022767,FALSE
Past Sale,Single Family Residential,1773 Heron Ave,SUNNYVALE,CA,94087,1398000,4,2,SUNNYVALE,2268,7652,1962,2,Garage,,Sold,,,,,1398000,2015-09-30,"1,470,000",http://www.redfin.com/CA/Sunnyvale/1773-Heron-Ave-94087/home/755245,MLSListings Inc. (MLSLI),ML81499603,Single Tree Realty,N,Y,37.3342931,-122.0196182,FALSE
Past Sale,Single Family Residential,201 Bradford Dr,SUNNYVALE,CA,94089,899000,4,3,SUNNYVALE,1647,5000,1954,1,Garage,,Sold,,,,,899000,2015-11-17,"1,000,000",http://www.redfin.com/CA/Sunnyvale/201-Bradford-Dr-94089/home/1006780,MLSListings Inc. (MLSLI),ML81518122,Intero Real Estate Services,N,Y,37.403217,-122.02324,FALSE
Past Sale,Single Family Residential,569 Maple Ave,SUNNYVALE,CA,94085,879000,4,3,SUNNYVALE,1324,5067,1950,2,Garage,,Sold,,,,,879000,2015-12-30,"990,000",http://www.redfin.com/CA/Sunnyvale/569-Maple-Ave-94085/home/1484174,MLSListings Inc. (MLSLI),ML81516980,Intero Real Estate Services,N,Y,37.38831,-122.019806,FALSE
Past Sale,Single Family Residential,1422 Firebird Way,SUNNYVALE,CA,94087,1598000,4,2.5,SUNNYVALE,1725,6045,1962,2,Garage,,Sold,,,,,1598000,2015-12-19,"1,625,000",http://www.redfin.com/CA/Sunnyvale/1422-Firebird-Way-94087/home/1225992,MLSListings Inc. (MLSLI),ML81521737,Coldwell Banker,N,Y,37.34809,-122.022466,FALSE
Past Sale,Single Family Residential,765 Gavello Ave,SUNNYVALE,CA,94086,1349980,4,2,SUNNYVALE,1677,9983,1954,2,Garage,,Sold,,,,2015-10-27,1400000,2015-11-25,"1,349,980",http://www.redfin.com/CA/Sunnyvale/765-Gavello-Ave-94086/home/1355384,MLSListings Inc. (MLSLI),ML81518645,Alain Pinel Realtors,N,Y,37.360745,-122.018883,FALSE
Past Sale,Single Family Residential,1675 Manitoba Dr,SUNNYVALE,CA,94087,1700000,4,2,SUNNYVALE,1844,7834,1960,2,Garage,,Sold,,,,,1700000,2015-10-09,"1,850,000",http://www.redfin.com/CA/Sunnyvale/1675-Manitoba-Dr-94087/home/1766620,MLSListings Inc. (MLSLI),ML81512925,Alain Pinel Realtors,N,Y,37.338524,-122.044479,FALSE
Past Sale,Single Family Residential,845 Groton Ct,SUNNYVALE,CA,94087,1898000,4,3,SUNNYVALE,2740,6847,1966,1,Garage,,Sold,,,,,1898000,2015-10-16,"1,900,000",http://www.redfin.com/CA/Sunnyvale/845-Groton-Ct-94087/home/653277,MLSListings Inc. (MLSLI),ML81513415,Alain Pinel Realtors,N,Y,37.364357,-122.043791,FALSE
Past Sale,Single Family Residential,828 Nisqually Dr,SUNNYVALE,CA,94087,1788000,4,2,SUNNYVALE,1872,9720,1960,2,Garage,,Sold,,,,,1788000,2015-11-04,"2,068,000",http://www.redfin.com/CA/Sunnyvale/828-Nisqually-Dr-94087/home/1258353,MLSListings Inc. (MLSLI),ML81516840,Intero Real Estate Services,N,Y,37.340728,-122.044537,FALSE
Past Sale,Single Family Residential,787 Peekskill Dr,SUNNYVALE,CA,94087,1695000,4,3,SUNNYVALE,2106,6600,1963,2,Garage,,Sold,,,,,1695000,2015-11-11,"1,711,000",http://www.redfin.com/CA/Sunnyvale/787-Peekskill-Dr-94087/home/1278065,MLSListings Inc. (MLSLI),ML81516713,Referral Realty,N,Y,37.361342,-122.045901,FALSE
Past Sale,Single Family Residential,1151 Hollenbeck Ave,SUNNYVALE,CA,94087,1648000,4,2,SUNNYVALE,1857,6500,1958,2,Garage,,Sold,,,,,1648000,2015-11-10,"1,648,000",http://www.redfin.com/CA/Sunnyvale/1151-Hollenbeck-Ave-94087/home/1273653,MLSListings Inc. (MLSLI),ML81515858,Sereno Group,N,Y,37.356681,-122.041786,FALSE
Past Sale,Single Family Residential,649 Bend Dr,SUNNYVALE,CA,94087,1580000,4,3,SUNNYVALE,1675,8029,1962,2,Garage,,Sold,,,,,1580000,2015-11-09,"1,530,000",http://www.redfin.com/CA/Sunnyvale/649-Bend-Dr-94087/home/1382601,MLSListings Inc. (MLSLI),ML81518641,Coldwell Banker,N,Y,37.350897,-122.040026,FALSE
Past Sale,Single Family Residential,779 W Homestead Rd,SUNNYVALE,CA,94087,1439000,4,2,SUNNYVALE,1768,8103,1960,2,Garage,,Sold,,,,,1439000,2015-11-24,"1,435,000",http://www.redfin.com/CA/Sunnyvale/779-W-Homestead-Rd-94087/home/1128045,MLSListings Inc. (MLSLI),ML81520055,Keller Williams Realty-Silicon Valley,N,Y,37.337789,-122.044593,FALSE
Past Sale,Multi-Family (5+ Unit),829 Blair Ave,Sunnyvale,CA,94087,,,,94087,3059,,1959,,,,,,,,,,2015-12-30,"1,682,000",http://www.redfin.com/CA/Sunnyvale/829-Blair-Ave-94087/home/1691799,,,,N,Y,37.369715,-122.043166,
Past Sale,Single Family Residential,1151 Quince Ave,Sunnyvale,CA,94087,,4,2,94087,1409,,1958,,,,,,,,,,2015-10-23,"1,700,000",http://www.redfin.com/CA/Sunnyvale/1151-Quince-Ave-94087/home/1622900,,,,N,Y,37.356748,-122.043013,
Past Sale,Single Family Residential,779 Lakeknoll Dr,SUNNYVALE,CA,94089,888888,4,3,SUNNYVALE,1560,8436,1957,1,Garage,,Sold,,,,,888888,2015-10-08,"940,000",http://www.redfin.com/CA/Sunnyvale/779-Lakeknoll-Dr-94089/home/1715823,MLSListings Inc. (MLSLI),ML81512345,Akimax Realty,N,Y,37.395449,-122.002703,FALSE
Past Sale,Single Family Residential,935 Blazingwood Dr,SUNNYVALE,CA,94089,848888,4,3,SUNNYVALE,1642,7281,1959,2,Garage,,Sold,,,,,739000,2015-12-08,"843,888",http://www.redfin.com/CA/Sunnyvale/935-Blazingwood-Dr-94089/home/1510195,MLSListings Inc. (MLSLI),ML81501362,Thurro Realty,N,Y,37.392821,-121.9947271,FALSE
Past Sale,Townhouse,925 Indian Wells Ave,SUNNYVALE,CA,94085,1098000,4,3.5,SUNNYVALE,1882,624,2011,2,Garage,,Sold,,,,,1098000,2015-12-24,"1,220,000",http://www.redfin.com/CA/Sunnyvale/925-Indian-Wells-Ave-94085/home/41396139,MLSListings Inc. (MLSLI),ML81533072,Coldwell Banker,N,Y,37.3862124,-122.0029989,FALSE
Past Sale,Single Family Residential,996 Cambridge Ave,SUNNYVALE,CA,94087,1299000,4,2,SUNNYVALE,1842,7029,1954,2,Garage,,Sold,,,,,1299000,2015-09-17,"1,600,000",http://www.redfin.com/CA/Sunnyvale/996-Cambridge-Ave-94087/home/1094405,MLSListings Inc. (MLSLI),ML81486284,Coldwell Banker,N,Y,37.3680386,-122.0495981,FALSE
Past Sale,Single Family Residential,1622 S Mary Ave,SUNNYVALE,CA,94087,1548000,4,2,SUNNYVALE,2103,8551,1956,1,Garage,,Sold,,,,2015-08-27,1595000,2015-09-30,"1,640,000",http://www.redfin.com/CA/Sunnyvale/1622-S-Mary-Ave-94087/home/1061966,MLSListings Inc. (MLSLI),ML81498467,Benson Real Estate,N,Y,37.340228,-122.049647,FALSE
Past Sale,Single Family Residential,982 Berkshire Ave,SUNNYVALE,CA,94087,1988000,4,3,SUNNYVALE,2568,11493,2015,2,Garage,,Sold,,,,,1988000,2015-10-07,"2,070,000",http://www.redfin.com/CA/Sunnyvale/982-Berkshire-Ave-94087/home/1379267,MLSListings Inc. (MLSLI),ML81486410,Sereno Group,N,Y,37.368771,-122.048637,FALSE
Past Sale,Single Family Residential,1089 Rockefeller Dr,SUNNYVALE,CA,94087,1800000,4,2.5,SUNNYVALE,1957,11357,1961,2,Garage,,Sold,,,,,1800000,2015-10-15,"1,830,000",http://www.redfin.com/CA/Sunnyvale/1089-Rockefeller-Dr-94087/home/655429,MLSListings Inc. (MLSLI),ML81500638,Windermere Diablo Realty,N,Y,37.357683,-122.058562,FALSE
Past Sale,Single Family Residential,1092 W Remington Dr,SUNNYVALE,CA,94087,1399000,4,2,SUNNYVALE,1839,8300,1960,2,Garage,,Sold,,,,,1399000,2015-11-03,"1,400,000",http://www.redfin.com/CA/Sunnyvale/1092-W-Remington-Dr-94087/home/655434,MLSListings Inc. (MLSLI),ML81514835,MGM Real Estate,N,Y,37.359249,-122.057805,FALSE
Past Sale,Single Family Residential,1201 Lynn Way,SUNNYVALE,CA,94087,1350000,4,2,SUNNYVALE,1262,6196,1952,1,Garage,,Sold,,,,,1350000,2015-11-23,"1,388,000",http://www.redfin.com/CA/Sunnyvale/1201-Lynn-Way-94087/home/1228644,MLSListings Inc. (MLSLI),ML81518799,Alain Pinel Realtors,N,Y,37.368855,-122.057591,FALSE
Past Sale,Single Family Residential,859 The Dalles Ave,SUNNYVALE,CA,94087,1950000,4,2,SUNNYVALE,1768,7658,1961,2,Garage,,Sold,,,,,1950000,2015-12-07,"1,950,000",http://www.redfin.com/CA/Sunnyvale/859-The-Dalles-Ave-94087/home/926218,MLSListings Inc. (MLSLI),ML81514557,Intero Real Estate Services,N,Y,37.345049,-122.048481,FALSE
Past Sale,Single Family Residential,1773 Karameos Ct,SUNNYVALE,CA,94087,1650000,5,2.5,SUNNYVALE,2444,5873,1961,2,Garage,,Sold,,,,,1650000,2015-12-18,"1,850,000",http://www.redfin.com/CA/Sunnyvale/1773-Karameos-Ct-94087/home/1364880,MLSListings Inc. (MLSLI),ML81521699,Keller Williams Palo Alto,N,Y,37.335149,-122.05439,FALSE
Past Sale,Single Family Residential,1123 W Remington Dr,SUNNYVALE,CA,94087,1298000,4,3,SUNNYVALE,1547,6000,1954,2,Garage,,Sold,,,,,1298000,2015-11-25,"1,406,000",http://www.redfin.com/CA/Sunnyvale/1123-W-Remington-Dr-94087/home/1346284,MLSListings Inc. (MLSLI),ML81519598,Coldwell Banker,N,Y,37.359758,-122.05852,FALSE
Past Sale,Single Family Residential,1141 Kelsey Dr,SUNNYVALE,CA,94087,1688000,4,2,SUNNYVALE,2077,7426,1957,2,Garage,,Sold,,,,,1688000,2015-11-25,"1,803,000",http://www.redfin.com/CA/Sunnyvale/1141-Kelsey-Dr-94087/home/1749489,MLSListings Inc. (MLSLI),ML81518699,Sereno Group,N,Y,37.357926,-122.056619,FALSE
Past Sale,Single Family Residential,1120 Spinosa Dr,SUNNYVALE,CA,94087,1498000,4,2,SUNNYVALE,1660,7738,1959,1,Garage,,Sold,,,,,1498000,2015-10-06,"1,670,000",http://www.redfin.com/CA/Sunnyvale/1120-Spinosa-Dr-94087/home/656376,MLSListings Inc. (MLSLI),ML81501709,Sereno Group,N,Y,37.357738,-122.036733,FALSE
Past Sale,Single Family Residential,1140 S Sage Ct,Sunnyvale,CA,94087,,4,2,94087,1755,,1959,,,,,,,,,,2015-11-24,"1,800,000",http://www.redfin.com/CA/Sunnyvale/1140-S-Sage-Ct-94087/home/1392935,,,,N,Y,37.357222,-122.038751,
Past Sale,Single Family Residential,1153 Sesame Dr,SUNNYVALE,CA,94087,1798000,4,2,SUNNYVALE,1770,8255,1959,2,Garage,,Sold,,,,,1798000,2015-11-24,"1,917,000",http://www.redfin.com/CA/Sunnyvale/1153-Sesame-Dr-94087/home/564848,MLSListings Inc. (MLSLI),ML81517590,Alain Pinel Realtors,N,Y,37.356186,-122.03899,FALSE
Past Sale,Multi-Family (2-4 Unit),821 Lewis Ave,Sunnyvale,CA,94086,,,,94086,1692,,1954,,,,,,,,,,2015-12-01,"1,000,000",http://www.redfin.com/CA/Sunnyvale/821-Lewis-Ave-94086/home/2125163,,,,N,Y,37.379024,-122.038904,
Past Sale,Single Family Residential,576 Crawford Dr,SUNNYVALE,CA,94087,2798000,5,6,SUNNYVALE,3750,10126,2004,2,Garage,,Sold,,,,,2798000,2015-12-01,"2,595,000",http://www.redfin.com/CA/Sunnyvale/576-Crawford-Dr-94087/home/1500399,MLSListings Inc. (MLSLI),ML81517745,Sereno Group,N,Y,37.362803,-122.035575,FALSE
Past Sale,Single Family Residential,601 W Remington Dr,SUNNYVALE,CA,94087,1399000,4,2,SUNNYVALE,1660,7533,1959,1,Garage,,Sold,,,,2015-11-05,1489000,2015-12-15,"1,525,000",http://www.redfin.com/CA/Sunnyvale/601-W-Remington-Dr-94087/home/769175,MLSListings Inc. (MLSLI),ML81519666,Coldwell Banker,N,Y,37.359273,-122.037085,FALSE
Past Sale,Single Family Residential,1112 Robin Ct,SUNNYVALE,CA,94087,1698000,4,2,SUNNYVALE,2272,11110,1963,2,Garage,,Sold,,,,,1698000,2015-10-28,"1,800,000",http://www.redfin.com/CA/Sunnyvale/1112-Robin-Ct-94087/home/1868039,MLSListings Inc. (MLSLI),ML81513674,Coldwell Banker,N,Y,37.358858,-122.060226,FALSE
Past Sale,Single Family Residential,1287 Albion Ln,SUNNYVALE,CA,94087,1750000,6,2.5,SUNNYVALE,2915,8588,1976,2,Garage,,Sold,,,,,1750000,2015-11-05,"1,760,000",http://www.redfin.com/CA/Sunnyvale/1287-Albion-Ln-94087/home/769968,MLSListings Inc. (MLSLI),ML81514371,Keller Williams San Jose Gateway,N,Y,37.35101,-122.061878,FALSE
Past Sale,Single Family Residential,965 Glenbar Ave,SUNNYVALE,CA,94087,1448000,5,2,SUNNYVALE,1904,6788,1957,2,Garage,,Sold,,,,,1448000,2015-11-24,"1,453,000",http://www.redfin.com/CA/Sunnyvale/965-Glenbar-Ave-94087/home/597228,MLSListings Inc. (MLSLI),ML81516836,Keller Williams Realty - Cupertino,N,Y,37.343255,-122.009048,FALSE
Past Sale,Single Family Residential,1059 Lily Ave,SUNNYVALE,CA,94086,1398000,4,2.5,SUNNYVALE,1937,6925,1974,2,Garage,,Sold,,,,2015-10-20,1498000,2015-12-12,"1,382,000",http://www.redfin.com/CA/Sunnyvale/1059-Lily-Ave-94086/home/668210,MLSListings Inc. (MLSLI),ML81517507,KELLER WILLIAMS,N,Y,37.361967,-122.004015,FALSE
Past Sale,Single Family Residential,998 Poplar Ct,SUNNYVALE,CA,94086,1198000,4,2.5,SUNNYVALE,1675,6829,1963,2,Garage,,Sold,,,,,1198000,2015-12-22,"1,333,500",http://www.redfin.com/CA/Sunnyvale/998-Poplar-Ct-94086/home/1576486,MLSListings Inc. (MLSLI),ML81522047,Sereno Group,N,Y,37.355812,-122.008279,FALSE
Past Sale,Single Family Residential,1380 Bedford Ave,SUNNYVALE,CA,94087,1889000,4,2.5,SUNNYVALE,2254,8096,1975,2,Garage,,Sold,,,,,1889000,2015-12-01,"1,850,000",http://www.redfin.com/CA/Sunnyvale/1380-Bedford-Ave-94087/home/1035377,MLSListings Inc. (MLSLI),ML81515681,Coldwell Banker,N,Y,37.348488,-122.063231,FALSE
Past Sale,Single Family Residential,105 Beemer Ave,SUNNYVALE,CA,94086,899888,4,3,SUNNYVALE,1531,4838,1946,1,Garage,,Sold,,,,2015-08-07,999888,2015-11-03,"850,000",http://www.redfin.com/CA/Sunnyvale/105-Beemer-Ave-94086/home/659450,MLSListings Inc. (MLSLI),ML81484425,Selective Realty Inc,N,Y,37.3803528,-122.0292559,FALSE
Past Sale,Single Family Residential,829 Devonshire Way,SUNNYVALE,CA,94087,1488000,4,2,SUNNYVALE,1553,7316,1961,2,Garage,,Sold,,,,,1488000,2015-11-20,"1,620,000",http://www.redfin.com/CA/Sunnyvale/829-Devonshire-Way-94087/home/624532,MLSListings Inc. (MLSLI),ML81517911,Keller Williams Palo Alto,N,Y,37.3461838,-122.0174279,FALSE
Past Sale,Single Family Residential,1581 Kingsgate Dr,SUNNYVALE,CA,94087,1689000,4,2,SUNNYVALE,2398,9538,1958,2,Garage,,Sold,,,,,1689000,2015-10-14,"2,100,000",http://www.redfin.com/CA/Sunnyvale/1581-Kingsgate-Dr-94087/home/1120263,MLSListings Inc. (MLSLI),ML81513628,Keller Williams Realty - Cupertino,N,Y,37.3423589,-122.0477544,FALSE
Past Sale,Townhouse,360 Santa Elena Ter,SUNNYVALE,CA,94085,1050000,4,3.5,SUNNYVALE,1750,765,2011,2,Garage,,Sold,,,,,1050000,2015-11-20,"1,050,000",http://www.redfin.com/CA/Sunnyvale/360-Santa-Elena-Ter-94085/unit-16/home/41396190,MLSListings Inc. (MLSLI),ML81516682,Keller Williams Palo Alto,N,Y,37.3826054,-122.016371,FALSE
Past Sale,Single Family Residential,1435 Floyd Ave,Sunnyvale,CA,94087,,4,2,94087,1879,,1960,,,,,,,,,,2015-09-30,"1,600,000",http://www.redfin.com/CA/Sunnyvale/1435-Floyd-Ave-94087/home/1358106,,,,N,Y,37.347736,-122.026795,
Past Sale,Single Family Residential,725 Londonderry Dr,SUNNYVALE,CA,94087,1498000,4,2,SUNNYVALE,1610,6350,1975,2,Garage,,Sold,,,,,1498000,2015-12-18,"1,745,000",http://www.redfin.com/CA/Sunnyvale/725-Londonderry-Dr-94087/home/886163,MLSListings Inc. (MLSLI),ML81522190,Keller Williams Realty - Cupertino,N,Y,37.338686,-122.0216256,FALSE
Past Sale,Single Family Residential,835 Dartshire Way,Sunnyvale,CA,94087,,5,3,94087,3186,,1956,,,,,,,,,,2015-12-03,"2,350,000",http://www.redfin.com/CA/Sunnyvale/835-Dartshire-Way-94087/home/758054,,,,N,Y,37.347007,-122.017099,
Past Sale,Single Family Residential,1550 Wright Ave,Sunnyvale,CA,94087,,4,2,94087,1998,,1961,,,,,,,,,,2015-11-18,"1,500,000",http://www.redfin.com/CA/Sunnyvale/1550-Wright-Ave-94087/home/755497,,,,N,Y,37.342849,-122.054746,
Past Sale,Single Family Residential,1151 Sherwood Ct,SUNNYVALE,CA,94087,1698000,4,2,SUNNYVALE,1999,12613,1962,4,Garage,,Sold,,,,,1698000,2015-11-19,"1,800,000",http://www.redfin.com/CA/Sunnyvale/1151-Sherwood-Ct-94087/home/1467518,MLSListings Inc. (MLSLI),ML81518762,Sereno Group,N,Y,37.3570885,-122.0524486,FALSE
Past Sale,Single Family Residential,1721 Kimberly Dr,SUNNYVALE,CA,94087,1788000,4,3,SUNNYVALE,1958,8212,1956,2,Garage,,Sold,,,,,1788000,2015-11-09,"1,753,000",http://www.redfin.com/CA/Sunnyvale/1721-Kimberly-Dr-94087/home/1118899,MLSListings Inc. (MLSLI),ML81515813,Keller Williams Realty - Cupertino,N,Y,37.336788,-122.053515,FALSE
Past Sale,Single Family Residential,717 W Remington Dr,SUNNYVALE,CA,94087,1399950,4,2,SUNNYVALE,1759,6001,1963,2,Garage,,Sold,,,,,1399950,2015-12-07,"1,480,000",http://www.redfin.com/CA/Sunnyvale/717-W-Remington-Dr-94087/home/651137,MLSListings Inc. (MLSLI),ML81519734,Windermere Silicon Valley,N,Y,37.3596933,-122.0425548,FALSE
Past Sale,Single Family Residential,883 Payne Ct,SUNNYVALE,CA,94087,1988000,5,2.5,SUNNYVALE,3012,6136,1986,2,Garage,,Sold,,,,,1988000,2015-11-10,"2,180,000",http://www.redfin.com/CA/Sunnyvale/883-Payne-Ct-94087/home/651475,MLSListings Inc. (MLSLI),ML81515816,Keller Williams Realty - Cupertino,N,Y,37.3637282,-122.0487067,FALSE
Past Sale,Single Family Residential,1087 W Washington Ave,SUNNYVALE,CA,94086,1498000,4,2.5,SUNNYVALE,2616,6214,1965,2,Garage,,Sold,,,,,1498000,2015-10-27,"1,700,000",http://www.redfin.com/CA/Sunnyvale/1087-W-Washington-Ave-94086/home/628318,MLSListings Inc. (MLSLI),ML81515834,Realty World-Martinelli Properties,N,Y,37.3797939,-122.048845,FALSE
Past Sale,Single Family Residential,830 Roble Dr,SUNNYVALE,CA,94086,1498000,4,2,SUNNYVALE,2200,6532,1972,2,Garage,,Sold,,,,,1498000,2015-12-10,"1,535,000",http://www.redfin.com/CA/Sunnyvale/830-Roble-Dr-94086/home/1224457,MLSListings Inc. (MLSLI),ML81521410,Keller Williams Realty - Cupertino,N,Y,37.360494,-122.005676,FALSE
Past Sale,Single Family Residential,917 Redwood Ave,SUNNYVALE,CA,94086,1198000,4,2.5,SUNNYVALE,1479,5888,1964,2,Garage,,Sold,,,,,1198000,2015-11-16,"1,400,000",http://www.redfin.com/CA/Sunnyvale/917-Redwood-Ave-94086/home/1467897,MLSListings Inc. (MLSLI),ML81517846,Elite Realty Services,N,Y,37.35761,-122.006235,FALSE
Past Sale,Townhouse,579 Leyte Ter,Sunnyvale,CA,94089,,4,3,94089,1685,,2004,,,,,,,,,,2015-12-17,"235,000",http://www.redfin.com/CA/Sunnyvale/579-Leyte-Ter-94089/home/700358,,,,N,Y,37.402195,-122.011565,
Past Sale,Single Family Residential,932 Rosette Ct,SUNNYVALE,CA,94086,1080000,4,2.5,SUNNYVALE,1479,5939,1962,2,Garage,,Sold,,,,2015-10-02,1180000,2015-11-25,"1,050,000",http://www.redfin.com/CA/Sunnyvale/932-Rosette-Ct-94086/home/1528270,MLSListings Inc. (MLSLI),ML81515380,Insight Realty,N,Y,37.3582226,-122.0120187,FALSE
Past Sale,Single Family Residential,1085 Fairwood Ave,Sunnyvale,CA,94089,,4,2,94089,1648,,1955,,,,,,,,,,2015-09-14,"240,000",http://www.redfin.com/CA/Sunnyvale/1085-Fairwood-Ave-94089/home/1338531,,,,N,Y,37.3954949,-121.991863,
Past Sale,Single Family Residential,1454 Navarro Dr,Sunnyvale,CA,94087,,4,2,94087,1769,,1951,,,,,,,,,,2015-10-02,"1,100,000",http://www.redfin.com/CA/Sunnyvale/1454-Navarro-Dr-94087/home/1199961,,,,N,Y,37.346619,-122.0108514,
Past Sale,Single Family Residential,867 Azalea Dr,Sunnyvale,CA,94086,,4,2,94086,1659,,1968,,,,,,,,,,2015-12-08,"1,300,000",http://www.redfin.com/CA/Sunnyvale/867-Azalea-Dr-94086/home/1602410,,,,N,Y,37.3700423,-122.0128312,
Past Sale,Single Family Residential,1466 Hampton Dr,SUNNYVALE,CA,94087,1388888,4,2,SUNNYVALE,1865,7297,1950,0,,,Sold,,,,,1388888,2015-10-09,"1,325,000",http://www.redfin.com/CA/SUNNYVALE/1466-HAMPTON-DR-94087/home/1658558,MLSListings Inc. (MLSLI),ML81499062,Coldwell Banker,N,Y,37.34655,-122.012869,FALSE
Past Sale,Single Family Residential,929 Iris Ave,SUNNYVALE,CA,94086,1198000,5,3,SUNNYVALE,1991,6434,1963,2,Garage,,Sold,,,,,1198000,2015-10-19,"1,415,000",http://www.redfin.com/CA/Sunnyvale/929-Iris-Ave-94086/home/1623425,MLSListings Inc. (MLSLI),ML81499958,Keller Williams Realty - Cupertino,N,Y,37.3627271,-122.0124545,FALSE
Past Sale,Single Family Residential,834 Sugarpine Ave,Sunnyvale,CA,94086,,4,2,94086,1695,,1963,,,,,,,,,,2015-11-13,"400,000",http://www.redfin.com/CA/Sunnyvale/834-Sugarpine-Ave-94086/home/668592,,,,N,Y,37.3600769,-122.002646,
Past Sale,Single Family Residential,995 Aster Ave,SUNNYVALE,CA,94086,1198888,4,2,SUNNYVALE,1551,6598,1970,2,Garage,,Sold,,,,,1198888,2015-10-03,"1,350,000",http://www.redfin.com/CA/Sunnyvale/995-Aster-Ave-94086/home/1799456,MLSListings Inc. (MLSLI),ML81501837,Coldwell Banker,N,Y,37.3690349,-122.007219,FALSE
Past Sale,Single Family Residential,582 Manzanita Ave,SUNNYVALE,CA,94085,1050000,4,2,SUNNYVALE,1609,5236,1950,2,,,Sold,,,,,928000,2015-11-06,"1,028,000",http://www.redfin.com/CA/Sunnyvale/582-Manzanita-Ave-94085/home/658505,MLSListings Inc. (MLSLI),ML81497397,Coldwell Banker,N,Y,37.3901693,-122.0257817,FALSE
Past Sale,Multi-Family (2-4 Unit),770 San Juan Dr,SUNNYVALE,CA,94085,849000,4,,SUNNYVALE,1703,6000,1958,2,Garage,,Sold,,,,,849000,2015-10-23,"820,000",http://www.redfin.com/CA/Sunnyvale/770-San-Juan-Dr-94085/home/663528,MLSListings Inc. (MLSLI),ML81500690,Keller Williams Palo Alto,N,Y,37.3916685,-122.0103546,FALSE
Past Sale,Single Family Residential,1099 Susan Way,SUNNYVALE,CA,94087,1399000,4,2,SUNNYVALE,1566,6913,1955,0,,,Sold,,,,,1399000,2015-09-08,"1,510,000",http://www.redfin.com/CA/Sunnyvale/1099-Susan-Way-94087/home/654611,MLSListings Inc. (MLSLI),ML81497798,Coldwell Banker,N,Y,37.367743,-122.054695,FALSE
Past Sale,Single Family Residential,1456 Owen Sound Dr,SUNNYVALE,CA,94087,1698000,4,3,SUNNYVALE,1956,8072,1962,2,Garage,,Sold,,,,,1698000,2015-09-10,"1,956,000",http://www.redfin.com/CA/Sunnyvale/1456-Owen-Sound-Dr-94087/home/838554,MLSListings Inc. (MLSLI),ML81499553,Alain Pinel Realtors,N,Y,37.346261,-122.039318,FALSE
Past Sale,Single Family Residential,1474 Owen Sound Dr,SUNNYVALE,CA,94087,1698000,4,2.5,SUNNYVALE,1832,7841,1962,2,Garage,,Sold,,,,,1698000,2015-09-10,"2,000,000",http://www.redfin.com/CA/Sunnyvale/1474-Owen-Sound-Dr-94087/home/1200300,MLSListings Inc. (MLSLI),ML81499595,Keller Williams Palo Alto,N,Y,37.345467,-122.039318,FALSE
Past Sale,Multi-Family (2-4 Unit),656 W Iowa,SUNNYVALE,CA,94086,999999,4,,SUNNYVALE,1524,7405,1953,1,Garage,,Sold,,,,,999999,2015-09-09,"1,281,500",http://www.redfin.com/CA/Sunnyvale/656-W-Iowa-Ave-94086/home/628391,MLSListings Inc. (MLSLI),ML81497556,Alain Pinel Realtors,N,Y,37.3737428,-122.0383611,FALSE
Past Sale,Single Family Residential,1363 Sprig Ct,SUNNYVALE,CA,94087,1788888,4,3,SUNNYVALE,3120,6860,2001,2,Garage,,Sold,,,,,1788888,2015-09-04,"2,000,000",http://www.redfin.com/CA/Sunnyvale/1363-Sprig-Ct-94087/home/1243132,MLSListings Inc. (MLSLI),ML81496861,Alain Pinel Realtors,N,Y,37.34982,-122.002821,FALSE
Past Sale,Single Family Residential,1592 Parrot Ave,SUNNYVALE,CA,94087,1268000,4,2,SUNNYVALE,1421,6300,1959,2,Garage,,Sold,,,,,1268000,2015-09-10,"1,420,000",http://www.redfin.com/CA/Sunnyvale/1592-Parrot-Ave-94087/home/1023837,MLSListings Inc. (MLSLI),ML81499534,Keller Williams Realty - Cupertino,N,Y,37.341872,-122.00884,FALSE
Past Sale,Single Family Residential,676 Timberpine Ave,SUNNYVALE,CA,94086,1198000,4,2,SUNNYVALE,1794,6387,1975,2,Garage,,Sold,,,,,1198000,2015-09-11,"1,430,000",http://www.redfin.com/CA/Sunnyvale/676-Timberpine-Ave-94086/home/1736783,MLSListings Inc. (MLSLI),ML81499539,Keller Williams Realty - Cupertino,N,Y,37.364975,-121.999379,FALSE
Past Sale,Townhouse,1105 Interlaken Ter,SUNNYVALE,CA,94089,1198888,4,3.5,SUNNYVALE,1908,1908,2015,2,Garage,,Sold,,,,,1198888,2015-08-04,"1,223,855",http://www.redfin.com/CA/Sunnyvale/1105-Interlaken-Ter-94089/home/80162721,MLSListings Inc. (MLSLI),ML81465917,"Classic Communities, Inc.",N,Y,37.4007364,-122.0153034,FALSE
Past Sale,Single Family Residential,1666 Honfleur Dr,SUNNYVALE,CA,94087,1798000,4,2.5,SUNNYVALE,2032,7865,1961,2,Garage,,Sold,,,,,1798000,2015-07-17,"2,075,000",http://www.redfin.com/CA/Sunnyvale/1666-Honfleur-Dr-94087/home/1265000,MLSListings Inc. (MLSLI),ML81472782,Coldwell Banker,N,Y,37.338684,-122.053724,FALSE
Past Sale,Multi-Family (2-4 Unit),895 & 897 Altamont Ct,SUNNYVALE,CA,94085,899999,4,,SUNNYVALE,1536,7530,1959,2,Garage,,Sold,,,,2015-08-10,968888,2015-08-21,"883,000",http://www.redfin.com/CA/Sunnyvale/897-Altamont-Ct-94085/home/23477831,MLSListings Inc. (MLSLI),ML81472903,"Tera Properties, Inc.",N,Y,37.3933358,-122.0090505,FALSE
Past Sale,Single Family Residential,106 Connemara Way,SUNNYVALE,CA,94087,1528000,4,4,SUNNYVALE,1960,4219,2012,3,Garage,,Sold,,,,,1528000,2015-08-21,"1,733,000",http://www.redfin.com/CA/Sunnyvale/106-Connemara-Way-94087/home/40421587,MLSListings Inc. (MLSLI),ML81485585,Coldwell Banker,N,Y,37.3462514,-122.0318451,FALSE
Past Sale,Single Family Residential,773 W Remington Dr,SUNNYVALE,CA,94087,1399777,4,2,SUNNYVALE,1884,6000,1962,2,Garage,,Sold,,,,,1399777,2015-07-16,"1,435,000",http://www.redfin.com/CA/Sunnyvale/773-W-Remington-Dr-94087/home/1751673,MLSListings Inc. (MLSLI),ML81465489,Century 21-Alpha,N,Y,37.3597077,-122.0454818,FALSE
Past Sale,Single Family Residential,1296 Pumpkin Ter,SUNNYVALE,CA,94087,1549000,4,2.5,SUNNYVALE,1890,2907,2009,2,Garage,,Sold,,,,,1549000,2015-08-04,"1,753,000",http://www.redfin.com/CA/Sunnyvale/1296-Pumpkin-Ter-94087/home/23048053,MLSListings Inc. (MLSLI),ML81483586,Keller Williams Realty - Cupertino,N,Y,37.3525326,-122.0463739,FALSE
Past Sale,Single Family Residential,814 Lusterleaf Dr,SUNNYVALE,CA,94086,1048000,4,2,SUNNYVALE,1619,6212,1965,2,Garage,,Sold,,,,,1048000,2015-07-24,"1,250,000",http://www.redfin.com/CA/Sunnyvale/814-Lusterleaf-Dr-94086/home/1464178,MLSListings Inc. (MLSLI),ML81469593,Keller Williams Realty - Cupertino,N,Y,37.3620703,-122.014854,FALSE
Past Sale,Single Family Residential,861 Jasmine Dr,SUNNYVALE,CA,94086,1198000,4,2,SUNNYVALE,1619,6564,1965,2,Garage,,Sold,,,,,1198000,2015-08-14,"1,335,000",http://www.redfin.com/CA/Sunnyvale/861-Jasmine-Dr-94086/home/662915,MLSListings Inc. (MLSLI),ML81486299,Keller Williams Realty - Cupertino,N,Y,37.3614419,-122.015764,FALSE
Past Sale,Single Family Residential,738 Henrietta Ave,SUNNYVALE,CA,94086,1399980,5,2,SUNNYVALE,1975,10019,1954,2,Garage,,Sold,,,,,1399980,2015-07-09,"1,650,000",http://www.redfin.com/CA/Sunnyvale/738-Henrietta-Ave-94086/home/664085,MLSListings Inc. (MLSLI),ML81466889,Alain Pinel Realtors,N,Y,37.3611829,-122.01889,FALSE
Past Sale,Single Family Residential,1027 Grape Ave,Sunnyvale,CA,94087,,4,2,94087,1595,,1954,,,,,,,,,,2015-06-18,"1,825,000",http://www.redfin.com/CA/Sunnyvale/1027-Grape-Ave-94087/home/1763480,,,,N,Y,37.3626827,-122.0565726,
Past Sale,Townhouse,708 Russett Ter,SUNNYVALE,CA,94087,999500,4,2.5,SUNNYVALE,1940,1921,1977,2,Garage,,Sold,,,,,999500,2015-06-29,"1,200,000",http://www.redfin.com/CA/Sunnyvale/708-Russet-Dr-94087/home/1655463,MLSListings Inc. (MLSLI),ML81467830,Intero Real Estate Services,N,Y,37.366874,-122.038122,FALSE
Past Sale,Single Family Residential,1255 Townsend Ter,SUNNYVALE,CA,94087,1450000,4,3,SUNNYVALE,1978,5211,1995,2,Garage,,Sold,,,,,1450000,2015-07-28,"1,400,000",http://www.redfin.com/CA/Sunnyvale/1255-Townsend-Ter-94087/home/1255102,MLSListings Inc. (MLSLI),ML81468452,Better Homes Realty,N,Y,37.3535929,-122.060564,FALSE
Past Sale,Single Family Residential,571 E Homestead Rd,SUNNYVALE,CA,94087,1749950,5,3,SUNNYVALE,3528,9681,1986,8,Garage,,Sold,,,,,1749950,2015-07-28,"1,860,000",http://www.redfin.com/CA/Sunnyvale/571-E-Homestead-Rd-94087/home/760156,MLSListings Inc. (MLSLI),ML81468098,Realty World-Champions,N,Y,37.3378919,-122.026844,FALSE
Past Sale,Single Family Residential,139 Carlisle Way,Sunnyvale,CA,94087,,4,2,94087,2059,,1994,,,,,,,,,,2015-06-18,"1,630,000",http://www.redfin.com/CA/Sunnyvale/139-Carlisle-Way-94087/home/1475360,,,,N,Y,37.3494529,-122.031086,
Past Sale,Single Family Residential,645 Cheshire,SUNNYVALE,CA,94087,1550000,4,2.5,SUNNYVALE,2025,6663,1960,2,Garage,,Sold,,,,,1550000,2015-08-20,"1,755,000",http://www.redfin.com/CA/Sunnyvale/645-Cheshire-Way-94087/home/1565193,MLSListings Inc. (MLSLI),ML81483892,Coldwell Banker,N,Y,37.3483173,-122.0244862,FALSE
Past Sale,Townhouse,113 Holly Ter,Sunnyvale,CA,94086,,4,3,94086,2063,,2004,,,,,,,,,,2015-06-24,"1,205,000",http://www.redfin.com/CA/Sunnyvale/113-Holly-Ter-94086/home/1747015,,,,N,Y,37.3721609,-122.0172648,
Past Sale,Multi-Family (2-4 Unit),678-680 San Luisito Way,SUNNYVALE,CA,94085,874950,4,,SUNNYVALE,2012,6970,1958,0,,,Sold,,,,,874950,2015-07-14,"1,000,000",http://www.redfin.com/CA/Sunnyvale/680-San-Luisito-Way-94085/home/1074078,MLSListings Inc. (MLSLI),ML81465343,True-Vision Network Real Estate,N,Y,37.389575,-122.008681,FALSE
Past Sale,Single Family Residential,1484 Chukar Ct,SUNNYVALE,CA,94087,1798000,4,2,SUNNYVALE,1880,9600,1971,2,Garage,,Sold,,,,,1798000,2015-07-29,"1,975,000",http://www.redfin.com/CA/Sunnyvale/1484-Chukar-Ct-94087/home/1530907,MLSListings Inc. (MLSLI),ML81471950,Coldwell Banker,N,Y,37.34557,-122.026964,FALSE
Past Sale,Single Family Residential,1538 Coronach Ave,SUNNYVALE,CA,94087,1728000,4,2,SUNNYVALE,2103,9360,1956,2,Garage,,Sold,,,,,1728000,2015-07-20,"2,200,000",http://www.redfin.com/CA/Sunnyvale/1538-Coronach-Ave-94087/home/769286,MLSListings Inc. (MLSLI),ML81483834,Coldwell Banker,N,Y,37.343579,-122.057889,FALSE
Past Sale,Single Family Residential,529 Isla Vista Ter,SUNNYVALE,CA,94085,1080000,4,2.5,SUNNYVALE,1694,3693,2000,2,Garage,,Sold,,,,,1080000,2015-07-27,"1,255,800",http://www.redfin.com/CA/Sunnyvale/529-Isla-Vista-Ter-94085/home/1255170,MLSListings Inc. (MLSLI),ML81485300,Giant Realty Inc.,N,Y,37.3913326,-122.0175669,FALSE
Past Sale,Single Family Residential,350 N Bayview Ave,Sunnyvale,CA,94085,,5,3,94085,2523,,1997,,,,,,,,,,2015-06-23,"1,000,000",http://www.redfin.com/CA/Sunnyvale/350-N-Bayview-Ave-94085/home/1393033,,,,N,Y,37.3838974,-122.0232139,
Past Sale,Single Family Residential,813 Blanchard Way,SUNNYVALE,CA,94087,1798000,4,2,SUNNYVALE,2148,8692,1968,2,Garage,,Sold,,,,,1798000,2015-07-08,"2,180,000",http://www.redfin.com/CA/Sunnyvale/813-Blanchard-Way-94087/home/770158,MLSListings Inc. (MLSLI),ML81469617,Coldwell Banker,N,Y,37.350304,-122.046994,FALSE
Past Sale,Single Family Residential,862 Trenton Dr,SUNNYVALE,CA,94087,1848000,4,3,SUNNYVALE,1842,7412,1960,1,Garage,,Sold,,,,,1848000,2015-08-28,"1,780,000",http://www.redfin.com/CA/Sunnyvale/862-Trenton-Dr-94087/home/1528099,MLSListings Inc. (MLSLI),ML81468449,Sereno Group,N,Y,37.354076,-122.048748,FALSE
Past Sale,Multi-Family (2-4 Unit),295 & 297 W Hendy Ave,SUNNYVALE,CA,94086,1038000,4,,SUNNYVALE,1530,8882,1950,2,Garage,,Sold,,,,,1038000,2015-08-11,"1,150,000",http://www.redfin.com/CA/Sunnyvale/297-W-Hendy-AVE-94086/home/89022998,MLSListings Inc. (MLSLI),ML81472699,Century 21 M&M and Associates,N,Y,37.3793123,-122.0312971,FALSE
Past Sale,Single Family Residential,784 Henderson Ave,SUNNYVALE,CA,94086,1499000,5,2.5,SUNNYVALE,2075,6572,1966,2,Garage,,Sold,,,,,1499000,2015-08-11,"1,560,000",http://www.redfin.com/CA/Sunnyvale/784-Henderson-Ave-94086/home/1103390,MLSListings Inc. (MLSLI),ML81485074,Universal Realty,N,Y,37.3620934,-122.0047872,FALSE
Past Sale,Single Family Residential,1011 Rosa Ave,SUNNYVALE,CA,94086,1200000,5,2.5,SUNNYVALE,2016,5759,1963,4,Garage,,Sold,,,,2015-07-27,1300000,2015-09-01,"1,050,000",http://www.redfin.com/CA/Sunnyvale/1011-Rosa-Ave-94086/home/1304193,MLSListings Inc. (MLSLI),ML81469086,"Arthur McCombs, Broker",N,Y,37.357982,-122.007502,FALSE
Past Sale,Single Family Residential,743 Chemowa Ct,SUNNYVALE,CA,94087,1750000,4,2,SUNNYVALE,1768,7796,1961,2,Garage,,Sold,,,,,1750000,2015-09-01,"2,088,017",http://www.redfin.com/CA/Sunnyvale/743-Chemowa-Ct-94087/home/1443140,MLSListings Inc. (MLSLI),ML81497394,"Nu Level Realty, Inc.",N,Y,37.346913,-122.042966,FALSE
Past Sale,Single Family Residential,881 Russet Dr,SUNNYVALE,CA,94087,1938000,6,3,SUNNYVALE,2432,6098,1967,2,Garage,,Sold,,,,,1938000,2015-08-14,"2,020,000",http://www.redfin.com/CA/Sunnyvale/881-Russet-Dr-94087/home/1495170,MLSListings Inc. (MLSLI),ML81484659,"JDK & ASSOCIATES REALTY, INC.",N,Y,37.3624,-122.039992,FALSE
Past Sale,Single Family Residential,1590 Wright Ave,SUNNYVALE,CA,94087,1749888,4,2.5,SUNNYVALE,2258,9084,1973,2,Garage,,Sold,,,,2015-07-10,1799888,2015-08-17,"1,749,888",http://www.redfin.com/CA/Sunnyvale/1590-Wright-Ave-94087/home/1708894,MLSListings Inc. (MLSLI),ML81472098,CSR Real Estate Services,N,Y,37.341814,-122.054651,FALSE
Past Sale,Single Family Residential,1640 Albatross Dr,SUNNYVALE,CA,94087,1950000,5,4,SUNNYVALE,2682,10309,1968,3,Garage,,Sold,,,,,1798000,2015-08-14,"1,950,000",http://www.redfin.com/CA/Sunnyvale/1640-Albatross-Dr-94087/home/1264765,MLSListings Inc. (MLSLI),ML81470857,Keller Williams Realty - Cupertino,N,Y,37.339976,-122.031226,FALSE
Past Sale,Single Family Residential,1047 Rembrandt Dr,SUNNYVALE,CA,94087,1260000,4,2.5,SUNNYVALE,1671,7568,1963,2,Garage,,Sold,,,,,1260000,2015-08-18,"1,500,000",http://www.redfin.com/CA/Sunnyvale/1047-Rembrandt-Dr-94087/home/1393163,MLSListings Inc. (MLSLI),ML81468733,Realty World Santa Clara Valley,N,Y,37.357062,-122.022859,FALSE
Past Sale,Single Family Residential,1436 Bellingham Way,SUNNYVALE,CA,94087,1795000,4,2.5,SUNNYVALE,2350,9436,1963,2,Garage,,Sold,,,,,1795000,2015-08-18,"2,000,000",http://www.redfin.com/CA/Sunnyvale/1436-Bellingham-Way-94087/home/1383147,MLSListings Inc. (MLSLI),ML81484676,RE/MAX Real Estate Services,N,Y,37.34611,-122.060888,FALSE
Past Sale,Single Family Residential,1050 Inverness Way,SUNNYVALE,CA,94087,1198000,4,2,SUNNYVALE,1421,5663,1957,2,Garage,,Sold,,,,,1198000,2015-08-25,"1,380,000",http://www.redfin.com/CA/Sunnyvale/1050-Inverness-Way-94087/home/1673419,MLSListings Inc. (MLSLI),ML81466237,Mike Segal Properties,N,Y,37.341404,-122.00473,FALSE
Past Sale,Townhouse,954 Fontana Ter,SUNNYVALE,CA,94085,988000,4,3.5,SUNNYVALE,1882,880,2011,60,Garage,,Sold,,,,,988000,2015-08-28,"1,150,000",http://www.redfin.com/CA/Sunnyvale/954-Fontana-Ter-94085/home/41396203,MLSListings Inc. (MLSLI),ML81486470,Intero Real Estate Services,N,Y,37.3872849,-122.0023106,FALSE
Past Sale,Single Family Residential,173 Leota Ave,SUNNYVALE,CA,94086,1199500,4,2,SUNNYVALE,1700,6460,1966,2,Garage,,Sold,,,,2015-07-06,1399500,2015-08-14,"1,348,000",http://www.redfin.com/CA/Sunnyvale/173-Leota-Ave-94086/home/543107,MLSListings Inc. (MLSLI),ML81469614,Coldwell Banker,N,Y,37.3814,-122.049543,FALSE
Past Sale,Townhouse,735 Russett Ter,SUNNYVALE,CA,94087,999500,4,2.5,SUNNYVALE,1940,2569,1977,2,Garage,,Sold,,,,,999500,2015-08-11,"1,245,000",http://www.redfin.com/CA/Sunnyvale/735-Russett-Ter-94087/home/653857,MLSListings Inc. (MLSLI),ML81483697,Intero Real Estate Services,N,Y,37.367023,-122.038736,FALSE
Past Sale,Single Family Residential,852 Summit Ct,SUNNYVALE,CA,94087,1988000,4,3,SUNNYVALE,2547,7166,1995,2,Garage,,Sold,,,,,1988000,2015-08-28,"1,980,000",http://www.redfin.com/CA/Sunnyvale/852-Summit-Ct-94087/home/729983,MLSListings Inc. (MLSLI),ML81485141,Keller Williams Realty - Cupertino,N,Y,37.363603,-122.035577,FALSE
Past Sale,Single Family Residential,972 Aster Ct,SUNNYVALE,CA,94086,1298000,4,2,SUNNYVALE,1489,7322,1970,2,Garage,,Sold,,,,,1298000,2015-09-01,"1,460,000",http://www.redfin.com/CA/Sunnyvale/972-Aster-Ct-94086/home/743582,MLSListings Inc. (MLSLI),ML81498656,"AEZ Investment, Inc.",N,Y,37.368654,-122.008517,FALSE
Past Sale,Single Family Residential,1418 Kitimat Pl,SUNNYVALE,CA,94087,1798000,4,2,SUNNYVALE,1882,8021,1956,0,,,Sold,,,,2015-07-15,1928000,2015-08-21,"1,850,000",http://www.redfin.com/CA/Sunnyvale/1418-Kitimat-Pl-94087/home/768363,MLSListings Inc. (MLSLI),ML81471766,Coldwell Banker,N,Y,37.347584,-122.050714,FALSE
Past Sale,Single Family Residential,843 W Homestead Rd,SUNNYVALE,CA,94087,1398000,4,2,SUNNYVALE,1768,7974,1959,2,Garage,,Sold,,,,,1398000,2015-08-11,"1,630,000",http://www.redfin.com/CA/Sunnyvale/843-W-Homestead-Rd-94087/home/771392,MLSListings Inc. (MLSLI),ML81471921,Intero Real Estate Services,N,Y,37.337786,-122.048089,FALSE
Past Sale,Townhouse,1106 Munich Ter,SUNNYVALE,CA,94089,989000,4,3,SUNNYVALE,1685,1187,2004,60,Garage,,Sold,,,,,989000,2015-09-02,"1,250,000",http://www.redfin.com/CA/Sunnyvale/1106-Munich-Ter-94089/unit-31/home/1577746,MLSListings Inc. (MLSLI),ML81512623,Intero Real Estate Services,N,Y,37.401576,-122.012873,FALSE
Past Sale,Townhouse,590 San Remi Ter,SUNNYVALE,CA,94085,988000,4,3.5,SUNNYVALE,1882,818,2011,50,Garage,,Sold,,,,,988000,2015-07-14,"1,160,000",http://www.redfin.com/CA/Sunnyvale/590-San-Remi-Ter-94085/home/41395885,MLSListings Inc. (MLSLI),ML81468412,Intero Real Estate Services,N,Y,37.3878615,-122.0028658,FALSE
Past Sale,Single Family Residential,1563 Parrot Ave,SUNNYVALE,CA,94087,1238888,4,2,SUNNYVALE,1866,7168,1959,2,Garage,,Sold,,,,,1238888,2015-08-28,"1,565,000",http://www.redfin.com/CA/Sunnyvale/1563-Parrot-Ave-94087/home/1150066,MLSListings Inc. (MLSLI),ML81483207,Century 21 M&M and Associates,N,Y,37.34286,-122.009401,FALSE
Past Sale,Single Family Residential,1430 Belleville Way,Sunnyvale,CA,94087,,4,2,94087,2142,,1961,,,,,,,,,,2015-06-18,"2,100,000",http://www.redfin.com/CA/Sunnyvale/1430-Belleville-Way-94087/home/550961,,,,N,Y,37.346838,-122.06143,
Past Sale,Single Family Residential,1163 Palamos Ave,Sunnyvale,CA,94089,,5,2,94089,1468,,1958,,,,,,,,,,2015-06-26,"760,000",http://www.redfin.com/CA/Sunnyvale/1163-Palamos-Ave-94089/home/582828,,,,N,Y,37.399642,-121.99301,
Past Sale,Townhouse,1005 Bryant Way Unit E,SUNNYVALE,CA,94087,898000,4,2.5,SUNNYVALE,1646,867,1974,2,Garage,,Sold,,,,,898000,2015-08-05,"920,000",http://www.redfin.com/CA/Sunnyvale/1005-Bryant-Way-94087/unit-0000E/home/12228615,MLSListings Inc. (MLSLI),ML81485116,Intero Real Estate Services,N,Y,37.351125,-122.006333,FALSE
Past Sale,Townhouse,489 Tea Tree Ter,SUNNYVALE,CA,94086,899000,4,3,SUNNYVALE,1765,1307,2007,2,Garage,,Sold,,,,2015-06-24,925000,2015-07-29,"905,000",http://www.redfin.com/CA/Sunnyvale/489-Tea-Tree-Ter-94086/home/12179638,MLSListings Inc. (MLSLI),ML81469087,Alain Pinel Realtors,N,Y,37.368866,-122.000504,FALSE
Past Sale,Single Family Residential,1343 Egret Dr,SUNNYVALE,CA,94087,1399000,4,2.5,SUNNYVALE,1671,7387,1963,2,Garage,,Sold,,,,,1399000,2015-07-31,"1,527,000",http://www.redfin.com/CA/Sunnyvale/1343-Egret-Dr-94087/home/1713779,MLSListings Inc. (MLSLI),ML81471832,Alain Pinel Realtors,N,Y,37.350235,-122.024189,FALSE
Past Sale,Single Family Residential,945 Lorne Way,SUNNYVALE,CA,94087,1298000,4,2,SUNNYVALE,2094,7119,1956,0,,,Sold,,,,,1298000,2015-07-01,"1,620,000",http://www.redfin.com/CA/Sunnyvale/945-Lorne-Way-94087/home/1012887,MLSListings Inc. (MLSLI),ML81469712,Coldwell Banker,N,Y,37.338761,-122.00932,FALSE
Past Sale,Single Family Residential,840 Talisman Dr,SUNNYVALE,CA,94087,1498000,4,2.5,SUNNYVALE,2050,5897,1995,4,Garage,,Sold,,,,,1498000,2015-08-07,"1,602,000",http://www.redfin.com/CA/Sunnyvale/840-Talisman-Dr-94087/home/654127,MLSListings Inc. (MLSLI),ML81470811,Keller Williams Realty - Cupertino,N,Y,37.363984,-122.033032,FALSE
Past Sale,Single Family Residential,639 Princeton Dr,Sunnyvale,CA,94087,,4,2,94087,2178,,1966,,,,,,,,,,2015-06-19,"1,520,000",http://www.redfin.com/CA/Sunnyvale/639-Princeton-Dr-94087/home/821836,,,,N,Y,37.360258,-122.038781,
Past Sale,Single Family Residential,851 Summit Ct,SUNNYVALE,CA,94087,1998000,5,3,SUNNYVALE,2547,6618,1995,2,Garage,,Sold,,,,,1998000,2015-06-23,"1,900,000",http://www.redfin.com/CA/Sunnyvale/851-Summit-Ct-94087/home/827388,MLSListings Inc. (MLSLI),ML81462469,Coldwell Banker,N,Y,37.363604,-122.035869,FALSE
Past Sale,Single Family Residential,363 N Murphy Ave,SUNNYVALE,CA,94085,999000,4,3,SUNNYVALE,1809,5200,1942,2,Garage,,Sold,,,,,999000,2015-07-07,"1,100,000",http://www.redfin.com/CA/Sunnyvale/363-N-Murphy-Ave-94085/home/564876,MLSListings Inc. (MLSLI),ML81463567,MGM Real Estate,N,Y,37.386505,-122.026974,FALSE
Past Sale,Single Family Residential,844 Lakemuir Dr,SUNNYVALE,CA,94089,868000,4,2,SUNNYVALE,1784,5227,1956,1,Garage,,Sold,,,,,868000,2015-07-15,"880,000",http://www.redfin.com/CA/Sunnyvale/844-Lakemuir-Dr-94089/home/1211329,MLSListings Inc. (MLSLI),ML81464940,White House Real Estate,N,Y,37.394274,-122.000461,FALSE
Past Sale,Single Family Residential,1448 Kyle Ct,SUNNYVALE,CA,94087,1895000,6,3,SUNNYVALE,2548,7907,1961,2,Garage,,Sold,,,,,1895000,2015-07-30,"2,110,000",http://www.redfin.com/CA/Sunnyvale/1448-Kyle-Ct-94087/home/817209,MLSListings Inc. (MLSLI),ML81483288,Sereno Group,N,Y,37.34641,-122.047739,FALSE
Past Sale,Multi-Family (2-4 Unit),566 Alberta Ave,SUNNYVALE,CA,94087,1750000,5,,SUNNYVALE,2476,8200,1968,1,Garage,,Sold,,,,,1750000,2015-06-19,"1,700,000",http://www.redfin.com/CA/Sunnyvale/566-Alberta-Ave-94087/home/1344449,MLSListings Inc. (MLSLI),ML81468391,Intero Real Estate Services,N,Y,37.342792,-122.03528,FALSE
Past Sale,Single Family Residential,1370 Belleville Way,SUNNYVALE,CA,94087,1685555,4,2,SUNNYVALE,1947,9116,1976,2,Garage,,Sold,,,,,1685555,2015-06-25,"2,038,888",http://www.redfin.com/CA/Sunnyvale/1370-Belleville-Way-94087/home/860793,MLSListings Inc. (MLSLI),ML81464033,Referral Realty,N,Y,37.3483,-122.062105,FALSE
Past Sale,Single Family Residential,1081 Celilo Dr,Sunnyvale,CA,94087,,4,2,94087,1615,,1958,,,,,,,,,,2015-06-18,"1,750,000",http://www.redfin.com/CA/Sunnyvale/1081-Celilo-Dr-94087/home/1106015,,,,N,Y,37.347211,-122.058451,
Past Sale,Single Family Residential,1789 Linnet Ln,SUNNYVALE,CA,94087,1600000,4,2,SUNNYVALE,1828,6600,1962,2,Garage,,Sold,,,,,1428888,2015-06-23,"1,600,000",http://www.redfin.com/CA/Sunnyvale/1789-Linnet-Ln-94087/home/1764361,MLSListings Inc. (MLSLI),ML81464007,Mikasa Homes & Funding,N,Y,37.333813,-122.016748,FALSE
Past Sale,Single Family Residential,1088 Hamshire Ct,SUNNYVALE,CA,94087,1388000,4,2,SUNNYVALE,1662,6268,1958,2,Garage,,Sold,,,,,1388000,2015-07-16,"1,670,000",http://www.redfin.com/CA/Sunnyvale/1088-Hamshire-Ct-94087/home/800819,MLSListings Inc. (MLSLI),ML81469367,The O'Halloran Group,N,Y,37.342303,-122.003799,FALSE
Past Sale,Single Family Residential,1102 Teal Dr,SUNNYVALE,CA,94087,1098000,4,2,SUNNYVALE,1421,10511,1958,2,Garage,,Sold,,,,,1098000,2015-07-31,"1,285,000",http://www.redfin.com/CA/Sunnyvale/1102-Teal-Dr-94087/home/847206,MLSListings Inc. (MLSLI),ML81471938,Intero Real Estate Services,N,Y,37.341965,-122.0029652,FALSE
Past Sale,Single Family Residential,1672 Langport Dr,SUNNYVALE,CA,94087,1699000,5,3,SUNNYVALE,3009,10423,1978,3,Garage,,Sold,,,,,1699000,2015-07-09,"1,865,000",http://www.redfin.com/CA/Sunnyvale/1672-Langport-Dr-94087/home/760977,MLSListings Inc. (MLSLI),ML81470393,Century 21 M&M and Associates,N,Y,37.337924,-122.024514,FALSE
Past Sale,Single Family Residential,915 Mackenzie Dr,SUNNYVALE,CA,94087,1698000,5,3,SUNNYVALE,2433,16508,1968,2,Garage,,Sold,,,,,1698000,2015-07-24,"1,900,000",http://www.redfin.com/CA/Sunnyvale/915-Mackenzie-Dr-94087/home/775011,MLSListings Inc. (MLSLI),ML81471264,Alain Pinel Realtors,N,Y,37.337265,-122.050881,FALSE
Past Sale,Single Family Residential,832 Roble Dr,SUNNYVALE,CA,94086,1450000,4,2.5,SUNNYVALE,2773,6200,1972,2,Garage,,Sold,,,,,1450000,2015-06-23,"1,630,000",http://www.redfin.com/CA/Sunnyvale/832-Roble-Dr-94086/home/668988,MLSListings Inc. (MLSLI),ML81465102,Coldwell Banker,N,Y,37.360324,-122.005676,FALSE
Past Sale,Single Family Residential,989 Nettle Pl,Sunnyvale,CA,94086,,3,2,94086,1996,,1977,,,,,,,,,,2015-07-01,"1,400,000",http://www.redfin.com/CA/Sunnyvale/989-Nettle-Pl-94086/home/669267,,,,N,Y,37.360058,-122.009234,
Past Sale,Multi-Family (2-4 Unit),512 Romberg Dr,SUNNYVALE,CA,94087,1728888,5,,SUNNYVALE,2570,8260,1971,1,Garage,,Sold,,,,,1728888,2015-07-14,"1,665,000",http://www.redfin.com/CA/Sunnyvale/510-Romberg-Dr-94087/home/663741,MLSListings Inc. (MLSLI),ML81462496,Keller Williams Realty - Cupertino,N,Y,37.353081,-122.030057,FALSE
Past Sale,Single Family Residential,1316 Selo Dr,SUNNYVALE,CA,94087,1598000,4,2,SUNNYVALE,1600,6360,1949,2,Garage,,Sold,,,,,1598000,2015-07-02,"1,618,000",http://www.redfin.com/CA/Sunnyvale/1316-Selo-Dr-94087/home/692313,MLSListings Inc. (MLSLI),ML81465342,Intero Real Estate Services,N,Y,37.351154,-122.0353,FALSE
Past Sale,Townhouse,169 Waverly St,SUNNYVALE,CA,94086,1075000,4,3,SUNNYVALE,1668,2568,2007,1,Garage,,Sold,,,,,1075000,2015-08-06,"1,082,500",http://www.redfin.com/CA/Sunnyvale/169-Waverly-St-94086/home/1630766,MLSListings Inc. (MLSLI),ML81472167,Century 21  A-1 Network,N,Y,37.378483,-122.037516,FALSE
Past Sale,Multi-Family (2-4 Unit),866 Lewis Ave,SUNNYVALE,CA,94086,888000,4,,SUNNYVALE,1416,6345,1954,2,,,Sold,,,,,888000,2015-07-14,"1,110,000",http://www.redfin.com/CA/Sunnyvale/866-Lewis-Ave-94086/home/1747942,MLSListings Inc. (MLSLI),ML81468984,Coldwell Banker,N,Y,37.378831,-122.040549,FALSE
Past Sale,Single Family Residential,808 Tamarack Ln,SUNNYVALE,CA,94086,1698000,4,3.5,SUNNYVALE,2642,5915,2015,2,Garage,,Sold,,,,2015-05-13,1749000,2015-07-24,"1,675,000",http://www.redfin.com/CA/Sunnyvale/808-Tamarack-Ln-94086/home/1802874,MLSListings Inc. (MLSLI),ML81461167,Intero Real Estate Services,N,Y,37.361555,-122.000707,FALSE
Past Sale,Single Family Residential,1157 Ribier Ct,Sunnyvale,CA,94087,,4,2,94087,1661,,1959,,,,,,,,,,2015-06-18,"1,733,000",http://www.redfin.com/CA/Sunnyvale/1157-Ribier-Ct-94087/home/1092402,,,,N,Y,37.355662,-122.039949,
Past Sale,Single Family Residential,1404 Bittern Dr,Sunnyvale,CA,94087,,4,2,94087,1770,,1966,,,,,,,,,,2015-06-19,"1,777,500",http://www.redfin.com/CA/Sunnyvale/1404-Bittern-Dr-94087/home/1754385,,,,N,Y,37.349043,-122.029341,
Past Sale,Single Family Residential,430 vine Ave,SUNNYVALE,CA,94086,1799999,5,4,SUNNYVALE,3168,11760,1943,2,Garage,,Sold,,,,,1799999,2015-06-30,"1,815,000",http://www.redfin.com/CA/Sunnyvale/430-Vine-Ave-94086/home/1255400,MLSListings Inc. (MLSLI),ML81467452,Starriver Inc,N,Y,37.371059,-122.026889,FALSE
Past Sale,Single Family Residential,560 Rockport Dr,SUNNYVALE,CA,94087,1488000,4,2.5,SUNNYVALE,1986,9014,1967,3,Garage,,Sold,,,,,1488000,2015-06-19,"1,828,888",http://www.redfin.com/CA/Sunnyvale/560-Rockport-Dr-94087/home/1736549,MLSListings Inc. (MLSLI),ML81467117,Maxreal,N,Y,37.358077,-122.034519,FALSE
Past Sale,Single Family Residential,1103 Royal Ann Ct,SUNNYVALE,CA,94087,1698000,4,2,SUNNYVALE,1722,9682,1959,1,Garage,,Sold,,,,,1698000,2015-08-07,"1,725,000",http://www.redfin.com/CA/Sunnyvale/1103-Royal-Ann-Ct-94087/home/1855497,MLSListings Inc. (MLSLI),ML81471941,Coldwell Banker,N,Y,37.358911,-122.040635,FALSE
Past Sale,Single Family Residential,1026 Tulip Dr,SUNNYVALE,CA,94086,1188000,4,2.5,SUNNYVALE,1479,5746,1964,2,Garage,,Sold,,,,,1188000,2015-07-17,"1,325,000",http://www.redfin.com/CA/Sunnyvale/1026-Tulip-Dr-94086/home/1423625,MLSListings Inc. (MLSLI),ML81469872,Legacy Real Estate & Associates,N,Y,37.355085,-122.006148,FALSE
Past Sale,Multi-Family (5+ Unit),1228 Balboa Ct,SUNNYVALE,CA,94086,7000000,5,,SUNNYVALE,16604,25700,1964,12,Garage,,Sold,,,,,7000000,2015-07-31,"7,750,000",http://www.redfin.com/CA/Sunnyvale/1228-Balboa-Ct-94086/home/941195,MLSListings Inc. (MLSLI),ML81467545,Cornish & Carey Commercial,N,Y,37.3832975,-122.0547355,FALSE
Past Sale,Single Family Residential,737 The Dalles Ave,SUNNYVALE,CA,94087,1698000,4,2,SUNNYVALE,1797,8066,1962,2,Garage,,Sold,,,,,1698000,2015-07-08,"1,907,818",http://www.redfin.com/CA/Sunnyvale/737-The-Dalles-Ave-94087/home/1087865,MLSListings Inc. (MLSLI),ML81469597,Intero Real Estate Services,N,Y,37.3450825,-122.0426394,FALSE