SALE TYPE,HOME TYPE,ADDRESS,CITY,STATE,ZIP,LIST PRICE,BEDS,BATHS,LOCATION,SQFT,LOT SIZE,YEAR BUILT,PARKING SPOTS,PARKING TYPE,DAYS ON MARKET,STATUS,NEXT OPEN HOUSE DATE,NEXT OPEN HOUSE START TIME,NEXT OPEN HOUSE END TIME,RECENT REDUCTION DATE,ORIGINAL LIST PRICE,LAST SALE DATE,LAST SALE PRICE,URL (SEE http://www.redfin.com/buy-a-home/comparative-market-analysis FOR INFO ON PRICING),SOURCE,LISTING ID,ORIGINAL SOURCE,FAVORITE,INTERESTED,LATITUDE,LONGITUDE,IS SHORT SALE
MLS Listing,Single Family Residential,2947 Marietta Dr,SANTA CLARA,CA,95051,1199000,3,2,SANTA CLARA,1465,5998,1958,2,Garage,20,Active,,,,2016-06-03,1275000,2007-06-30,"720,000",http://www.redfin.com/CA/Santa-Clara/2947-Marietta-Dr-95051/home/1034142,MLSListings Inc. (MLSLI),ML81586953,Intero Real Estate Services,N,Y,37.339841,-121.981194,FALSE
New Construction Plan,Single Family Residential,Turin Plan 2,Santa Clara,CA,95051,1018880,2,3,The Homes at Central Park,1723,,,2,Garage,81,Active,,,,2016-04-27,1159631,,,http://www.redfin.com/CA/Santa-Clara/The-Homes-at-Central-Park/Turin-Plan-2/home/104232824,DR Horton,Plan-205471,DR Horton,N,Y,37.3417059,-121.9823315,FALSE
MLS Listing,Single Family Residential,3010 Kaiser Dr,SANTA CLARA,CA,95051,1422990,3,2.5,SANTA CLARA,1762,1762,2014,2,Garage,12,Active,,,,,1422990,,,http://www.redfin.com/CA/Santa-Clara/3010-Kaiser-Dr-95051/home/95957640,MLSListings Inc. (MLSLI),ML81588201,"Bair Properties, Inc.",N,Y,37.3418506,-121.9811583,FALSE
MLS Listing,Single Family Residential,451 Tanoak Dr,SANTA CLARA,CA,95051,1538000,3,2,SANTA CLARA,2038,8566,1971,2,Garage,33,Active,,,,,1538000,2012-09-05,"876,000",http://www.redfin.com/CA/Santa-Clara/451-Tanoak-Dr-95051/home/1232761,MLSListings Inc. (MLSLI),ML81584627,Maxreal,N,Y,37.3315718,-121.9694971,FALSE
New Construction Plan,Single Family Residential,Siena Plan 2,Santa Clara,CA,95051,1422990,3,2.5,The Homes at Central Park,1762,,,2,Garage,31,Active,,,,,1422990,,,http://www.redfin.com/CA/Santa-Clara/The-Homes-at-Central-Park/Siena-Plan-2/home/104302074,DR Horton,Plan-285975,DR Horton,N,Y,37.3417059,-121.9823315,FALSE
MLS Listing,Condo/Coop,1037 Alta Mira Dr Unit A,SANTA CLARA,CA,95051,589999,2,2,SANTA CLARA,1067,1768,1971,0,,39,Active,,,,,589999,1974-03-01,"24,700",http://www.redfin.com/CA/Santa-Clara/1037-Alta-Mira-Dr-95051/unit-A/home/1382102,MLSListings Inc. (MLSLI),ML81583707,"Gary G. Gillmor, Broker",N,Y,37.346173,-121.993413,FALSE
MLS Listing,Condo/Coop,968 Kiely Blvd Unit H,SANTA CLARA,CA,95051,489000,2,1.5,SANTA CLARA,992,527,1971,1,Garage,23,Active,,,,,489000,2005-02-08,"365,000",http://www.redfin.com/CA/Santa-Clara/968-Kiely-Blvd-95051/unit-H/home/1713495,MLSListings Inc. (MLSLI),ML81586668,Intero  R E Services,N,Y,37.342825,-121.981137,FALSE
MLS Listing,Single Family Residential,692 Salberg Ave,SANTA CLARA,CA,95051,1349950,4,2,SANTA CLARA,2191,6039,1954,4,Garage,10,Active,,,,,1349950,2005-01-06,"650,000",http://www.redfin.com/CA/Santa-Clara/692-Salberg-Ave-95051/home/711290,MLSListings Inc. (MLSLI),ML81588515,RE/MAX Real Estate Services,N,Y,37.336574,-121.9718523,FALSE
MLS Listing,Townhouse,3001 Kaiser Dr Unit A,SANTA CLARA,CA,95051,529000,2,1.5,SANTA CLARA,992,528,1971,1,Garage,11,Active,,,,,529000,2014-12-31,"495,000",http://www.redfin.com/CA/Santa-Clara/3001-Kaiser-Dr-95051/unit-A/home/1765916,MLSListings Inc. (MLSLI),ML81588243,Prima Investment Group Inc.,N,Y,37.342083,-121.9811584,FALSE
MLS Listing,Condo/Coop,121 Buckingham Dr #43,SANTA CLARA,CA,95051,455000,1,1,SANTA CLARA,656,760,1969,0,,2,Active,,,,,455000,2000-02-23,"173,000",http://www.redfin.com/CA/Santa-Clara/121-Buckingham-Dr-95051/unit-43/home/1475059,MLSListings Inc. (MLSLI),ML81590130,Intero Real Estate Services,N,Y,37.325941,-121.9708105,FALSE
MLS Listing,Single Family Residential,646 Los Olivos Dr,SANTA CLARA,CA,95050,1150000,3,2,SANTA CLARA,1749,6256,1956,2,Garage,17,Active,,,,,1150000,,,http://www.redfin.com/CA/Santa-Clara/646-Los-Olivos-Dr-95050/home/1429909,MLSListings Inc. (MLSLI),ML81587640,Alta Realty Advisors,N,Y,37.3378561,-121.9651906,FALSE
MLS Listing,Single Family Residential,2615 Barcells Ave,SANTA CLARA,CA,95051,1150000,3,2,SANTA CLARA,1783,6612,1957,2,Garage,8,Active,,,,,1150000,1983-09-23,"130,000",http://www.redfin.com/CA/Santa-Clara/2615-Barcells-Ave-95051/home/1708185,MLSListings Inc. (MLSLI),ML81588973,Intero Real Estate Services,N,Y,37.3391919,-121.9702249,FALSE
MLS Listing,Single Family Residential,473 Norwood Cir,SANTA CLARA,CA,95051,1050000,3,3,SANTA CLARA,1291,1555,2007,2,Garage,6,Active,,,,2016-06-09,1148000,2008-02-20,"495,000",http://www.redfin.com/CA/Santa-Clara/473-Norwood-Cir-95051/home/12180398,MLSListings Inc. (MLSLI),ML81587209,Intero Real Estate Services,N,Y,37.330478,-121.9959247,FALSE
MLS Listing,Single Family Residential,3562 Gibson Ave,SANTA CLARA,CA,95051,1299000,3,2,SANTA CLARA,1401,6363,1957,2,Garage,3,Active,,,,,1299000,2004-02-06,"570,000",http://www.redfin.com/CA/Santa-Clara/3562-Gibson-Ave-95051/home/742819,MLSListings Inc. (MLSLI),ML81589854,Coldwell Banker,N,Y,37.325251,-121.993989,FALSE
MLS Listing,Single Family Residential,2731 Forbes Ave,SANTA CLARA,CA,95051,1128000,3,2,SANTA CLARA,1145,5192,1955,2,Garage,10,Active,,,,,1128000,2016-04-28,"932,000",http://www.redfin.com/CA/Santa-Clara/2731-Forbes-Ave-95051/home/550197,MLSListings Inc. (MLSLI),ML81588503,Intero Real Estate Services,N,Y,37.333407997,-121.972288,FALSE
MLS Listing,Single Family Residential,640 Hamilton Ln,SANTA CLARA,CA,95051,1088000,3,2,SANTA CLARA,1092,5000,1953,1,Garage,12,Active,,,,,1088000,2002-03-07,"410,000",http://www.redfin.com/CA/Santa-Clara/640-Hamilton-Ln-95051/home/732191,MLSListings Inc. (MLSLI),ML81587973,Redfin,N,Y,37.3336029,-121.981566,FALSE
MLS Listing,Single Family Residential,431 Magnolia Ln,SANTA CLARA,CA,95051,1850000,5,4.5,SANTA CLARA,3628,11350,1960,2,Garage,48,Active,,,,2016-05-11,1888000,1993-03-26,"449,000",http://www.redfin.com/CA/Santa-Clara/431-Magnolia-Ln-95051/home/982493,MLSListings Inc. (MLSLI),ML81579780,"Realty World-Kevin F. Garvey, Broker",N,Y,37.3305974,-121.9756206,FALSE
MLS Listing,Single Family Residential,2523 Johnson Pl,SANTA CLARA,CA,95050,1298000,4,3,SANTA CLARA,2103,6176,1957,2,Garage,16,Active,,,,,1298000,,,http://www.redfin.com/CA/Santa-Clara/2523-Johnson-Pl-95050/home/738423,MLSListings Inc. (MLSLI),ML81587748,Keller Williams Realty-Silicon Valley,N,Y,37.33741,-121.967698,FALSE
MLS Listing,Single Family Residential,233 Rodonovan Ct,SANTA CLARA,CA,95051,1599000,4,3,SANTA CLARA,1782,8069,1954,2,Garage,17,Active,,,,2016-06-12,1699000,2006-06-28,"920,000",http://www.redfin.com/CA/Santa-Clara/233-Rodonovan-Ct-95051/home/741186,MLSListings Inc. (MLSLI),ML81584546,"Nautilus Global Real Estate, Inc",N,Y,37.327889,-121.989702,FALSE
MLS Listing,Single Family Residential,3096 Forbes Ave,SANTA CLARA,CA,95051,1198888,3,2,SANTA CLARA,1602,6098,1952,2,Garage,75,Active,2016-06-18,13:00,16:00,,1150000,1975-06-20,"36,000",http://www.redfin.com/CA/Santa-Clara/3096-Forbes-Ave-95051/home/925340,MLSListings Inc. (MLSLI),ML81577335,Keller Williams Realty - Cupertino,N,Y,37.333841,-121.985155,FALSE
MLS Listing,Single Family Residential,104 Kellogg Way,SANTA CLARA,CA,95051,1599950,4,2.5,SANTA CLARA,1718,8681,1958,2,Garage,12,Active,,,,,1599950,1983-03-24,"148,000",http://www.redfin.com/CA/Santa-Clara/104-Kellogg-Way-95051/home/1593221,MLSListings Inc. (MLSLI),ML81588101,Coldwell Banker,N,Y,37.3253048,-121.9840414,FALSE
MLS Listing,Townhouse,841 Pomeroy Ave #24,SANTA CLARA,CA,95051,599888,3,1.5,SANTA CLARA,1113,2578,1964,0,,6,Active,,,,,599888,2015-03-13,"100,000",http://www.redfin.com/CA/Santa-Clara/841-Pomeroy-Ave-95051/unit-24/home/618634,MLSListings Inc. (MLSLI),ML81589212,Coldwell Banker,N,Y,37.3395467,-121.987223,FALSE
MLS Listing,Single Family Residential,2376 Harrison St,SANTA CLARA,CA,95050,1048000,3,1.5,SANTA CLARA,1608,6494,1955,2,Garage,6,Active,,,,,1048000,2005-07-15,"700,000",http://www.redfin.com/CA/Santa-Clara/2376-Harrison-St-95050/home/1199073,MLSListings Inc. (MLSLI),ML81589167,Sereno Group,N,Y,37.349013,-121.96743,FALSE
MLS Listing,Townhouse,562 Los Olivos Dr,SANTA CLARA,CA,95050,795000,3,2.5,SANTA CLARA,1872,1197,1981,2,Garage,13,Active,,,,,795000,2012-03-26,"565,000",http://www.redfin.com/CA/Santa-Clara/562-Los-Olivos-Dr-95050/home/691814,MLSListings Inc. (MLSLI),ML81587958,COLDWELL BANKER RESIDENTIAL,N,Y,37.335355,-121.964309,FALSE
MLS Listing,Single Family Residential,260 Hillsdale Ave,SANTA CLARA,CA,95051,1699000,4,2,SANTA CLARA,2111,7200,1957,2,Garage,34,Active,,,,2016-06-01,1780000,1989-01-18,"288,500",http://www.redfin.com/CA/Santa-Clara/260-Hillsdale-Ave-95051/home/1075148,MLSListings Inc. (MLSLI),ML81584605,Intero Real Estate Services,N,Y,37.32782,-121.998635,FALSE
MLS Listing,Single Family Residential,464 Muriel Ct,SANTA CLARA,CA,95051,2380000,6,3.5,SANTA CLARA,3845,14231,1960,6,Garage,7,Active,,,,,2380000,1980-09-19,"180,000",http://www.redfin.com/CA/Santa-Clara/464-Muriel-Ct-95051/home/1368632,MLSListings Inc. (MLSLI),ML81589050,"Realty World-Kevin F. Garvey, Broker",N,Y,37.330624,-121.973095,FALSE
MLS Listing,Condo/Coop,2580 Homestead Rd #7103,SANTA CLARA,CA,95051,640000,2,1.5,SANTA CLARA,984,984,2007,0,,11,Active,,,,,640000,2008-07-02,"405,000",http://www.redfin.com/CA/Santa-Clara/2580-Homestead-Rd-95051/unit-7103/home/12402649,MLSListings Inc. (MLSLI),ML81588225,Catarra Real Estate Inc.,N,Y,37.3397753,-121.9715281,FALSE
Past Sale,Single Family Residential,3282 Colgate Ave,SANTA CLARA,CA,95051,1150000,3,2,SANTA CLARA,1302,5488,1961,2,Garage,,Sold,,,,,1150000,2016-06-01,"1,275,000",http://www.redfin.com/CA/Santa-Clara/3282-Colgate-Ave-95051/home/1378772,MLSListings Inc. (MLSLI),ML81580788,Redfin,N,Y,37.331142,-121.987191,FALSE
Past Sale,Condo/Coop,954 Kiely Blvd Unit B,SANTA CLARA,CA,95051,308000,1,1,SANTA CLARA,440,484,1971,0,,,Sold,,,,,308000,2016-05-13,"325,000",http://www.redfin.com/CA/Santa-Clara/954-Kiely-Blvd-95051/unit-B/home/824224,MLSListings Inc. (MLSLI),ML81581943,Amici Real Estate,N,Y,37.342879,-121.980498,FALSE
Past Sale,Single Family Residential,944 White Dr,SANTA CLARA,CA,95051,1025000,3,2,SANTA CLARA,1465,5510,1955,100,Garage,,Sold,,,,,1025000,2016-05-27,"1,050,000",http://www.redfin.com/CA/Santa-Clara/944-White-Dr-95051/home/1242505,MLSListings Inc. (MLSLI),ML81580083,Trust Sale Realty,N,Y,37.3427804,-121.9728615,FALSE
Past Sale,Single Family Residential,691 Nicholson Ave,SANTA CLARA,CA,95051,1299000,4,3,SANTA CLARA,2082,5192,1955,2,Garage,,Sold,,,,,1299000,2016-05-10,"1,405,000",http://www.redfin.com/CA/Santa-Clara/691-Nicholson-Ave-95051/home/1837209,MLSListings Inc. (MLSLI),ML81577333,"Slava Real Estate, Inc.",N,Y,37.3360186,-121.9729262,FALSE
Past Sale,Single Family Residential,682 Salberg Ave,SANTA CLARA,CA,95051,1174950,3,2,SANTA CLARA,1254,5248,1955,2,Garage,,Sold,,,,2016-04-07,1199950,2016-05-06,"1,200,000",http://www.redfin.com/CA/Santa-Clara/682-Salberg-Ave-95051/home/783399,MLSListings Inc. (MLSLI),ML81566257,Intero Real Estate Services,N,Y,37.3362849,-121.9716951,FALSE
Past Sale,Single Family Residential,3109 Alexander Ave,SANTA CLARA,CA,95051,1288000,4,2,SANTA CLARA,1760,6510,1961,2,Garage,,Sold,,,,,1288000,2016-06-03,"1,450,000",http://www.redfin.com/CA/Santa-Clara/3109-Alexander-Ave-95051/home/1117627,MLSListings Inc. (MLSLI),ML81582531,Legacy Real Estate & Assoc.,N,Y,37.3363568,-121.9859814,FALSE
Past Sale,Single Family Residential,3175 Temple Ct,SANTA CLARA,CA,95051,1300000,4,2,SANTA CLARA,1760,5985,1963,2,Garage,,Sold,,,,,1300000,2016-04-29,"1,440,000",http://www.redfin.com/CA/Santa-Clara/3175-Temple-Ct-95051/home/1312464,MLSListings Inc. (MLSLI),ML81566511,Keller Williams Realty - Cupertino,N,Y,37.332159,-121.985959,FALSE
Past Sale,Single Family Residential,3185 Temple Ct,SANTA CLARA,CA,95051,1388000,5,2.5,SANTA CLARA,2252,7649,1963,2,Garage,,Sold,,,,,1388000,2016-05-12,"1,540,000",http://www.redfin.com/CA/Santa-Clara/3185-Temple-Ct-95051/home/737531,MLSListings Inc. (MLSLI),ML81581359,Keller Williams Realty - Cupertino,N,Y,37.332213,-121.986227,FALSE
Past Sale,Single Family Residential,3047 Carleton Pl,SANTA CLARA,CA,95051,1299000,4,2,SANTA CLARA,1498,6000,1963,2,Garage,,Sold,,,,,1299000,2016-05-17,"1,500,000",http://www.redfin.com/CA/Santa-Clara/3047-Carleton-Pl-95051/home/1776570,MLSListings Inc. (MLSLI),ML81578674,Alain Pinel Realtors,N,Y,37.332465,-121.984173,FALSE
Past Sale,Single Family Residential,533 Hickory Pl,SANTA CLARA,CA,95051,1200000,4,2,SANTA CLARA,1760,5880,1963,2,Garage,,Sold,,,,,1200000,2016-05-27,"1,420,000",http://www.redfin.com/CA/Santa-Clara/533-Hickory-Pl-95051/home/1119127,MLSListings Inc. (MLSLI),ML81581089,Intero Real Estate Services,N,Y,37.3323139,-121.986641,FALSE
Past Sale,Single Family Residential,111 Serena Way,SANTA CLARA,CA,95051,1488000,3,3,SANTA CLARA,1689,8581,1948,1,Garage,,Sold,,,,,1488000,2016-05-27,"1,600,000",http://www.redfin.com/CA/Santa-Clara/111-Serena-Way-95051/home/741251,MLSListings Inc. (MLSLI),ML81581152,Happy Real Estate Inc,N,Y,37.3264046,-121.9737771,FALSE
Past Sale,Single Family Residential,3310 Princeton Way,SANTA CLARA,CA,95051,1250000,3,2,SANTA CLARA,1442,7239,1961,2,Garage,,Sold,,,,,1250000,2016-04-27,"1,280,000",http://www.redfin.com/CA/Santa-Clara/3310-Princeton-Way-95051/home/1262944,MLSListings Inc. (MLSLI),ML81565231,Intero Real Estate Services,N,Y,37.3371351,-121.9886709,FALSE
Past Sale,Single Family Residential,3881 Kensington Ave,SANTA CLARA,CA,95051,1428000,4,2,SANTA CLARA,2043,6830,1961,2,Garage,,Sold,,,,,1428000,2016-04-06,"1,460,000",http://www.redfin.com/CA/Santa-Clara/3881-Kensington-Ave-95051/home/762951,MLSListings Inc. (MLSLI),ML81562117,Keller Williams Realty - Cupertino,N,Y,37.341691,-122.002365,FALSE
Past Sale,Single Family Residential,731 San Miguel Ave,SANTA CLARA,CA,95050,888000,3,2,SANTA CLARA,1013,5941,1954,2,,,Sold,,,,2016-03-30,949000,2016-04-28,"895,000",http://www.redfin.com/CA/Santa-Clara/731-San-Miguel-Ave-95050/home/1614246,MLSListings Inc. (MLSLI),ML81565407,Reward Realty,N,Y,37.339827,-121.964593,FALSE
Past Sale,Condo/Coop,3035 Kaiser Dr Unit F,SANTA CLARA,CA,95051,375000,1,1,SANTA CLARA,680,814,1971,0,,,Sold,,,,,375000,2016-05-09,"400,000",http://www.redfin.com/CA/Santa-Clara/3035-Kaiser-Dr-95051/unit-F/home/1699488,MLSListings Inc. (MLSLI),ML81577375,Intero Real Estate Services,N,Y,37.343461,-121.982384,FALSE
Past Sale,Single Family Residential,1277 Loyola Dr,SANTA CLARA,CA,95051,1088000,3,2,SANTA CLARA,1560,5998,1956,2,Garage,,Sold,,,,,1088000,2016-04-29,"1,230,000",http://www.redfin.com/CA/Santa-Clara/1277-Loyola-Dr-95051/home/1167070,MLSListings Inc. (MLSLI),ML81566300,Century 21-Alpha,N,Y,37.348968,-121.970754,FALSE
Past Sale,Condo/Coop,980 Kiely Blvd #320,SANTA CLARA,CA,95051,359900,1,1,SANTA CLARA,622,696,1971,1,Garage,,Sold,,,,2016-01-15,384900,2016-02-26,"335,000",http://www.redfin.com/CA/Santa-Clara/980-Kiely-Blvd-95051/unit-320/home/1127377,MLSListings Inc. (MLSLI),ML81535133,Tuscana Properties,N,Y,37.343308,-121.980085,FALSE
Past Sale,Condo/Coop,952 Kiely Blvd Unit J,SANTA CLARA,CA,95051,478000,2,2,SANTA CLARA,956,1019,1971,1,Garage,,Sold,,,,,478000,2016-03-24,"500,000",http://www.redfin.com/CA/Santa-Clara/952-Kiely-Blvd-95051/unit-J/home/846576,MLSListings Inc. (MLSLI),ML81550989,Redfin,N,Y,37.3419039,-121.9801619,FALSE
Past Sale,Condo/Coop,120 Saratoga Ave #117,SANTA CLARA,CA,95051,498000,2,2,SANTA CLARA,1137,1258,1969,0,,,Sold,,,,,498000,2016-03-28,"555,000",http://www.redfin.com/CA/Santa-Clara/120-Saratoga-Ave-95051/unit-117/home/1201261,MLSListings Inc. (MLSLI),ML81550439,Home Solutions Realty,N,Y,37.325897,-121.969695,FALSE
Past Sale,Condo/Coop,2847 Kaiser Dr,SANTA CLARA,CA,95051,969880,2,3,SANTA CLARA,1822,1000,2016,2,Garage,,Sold,,,,2016-02-10,1030497,2016-03-30,"979,990",http://www.redfin.com/CA/Santa-Clara/2847-Kaiser-Dr-95051/home/102396201,MLSListings Inc. (MLSLI),ML81545813,"Bair Properties, Inc.",N,Y,37.3418586,-121.979203,FALSE
Past Sale,Condo/Coop,2843 Kaiser Dr,SANTA CLARA,CA,95051,1035990,3,3.5,SANTA CLARA,1951,1000,2015,2,Garage,,Sold,,,,2016-02-10,1144511,2016-03-30,"1,016,000",http://www.redfin.com/CA/Santa-Clara/2843-Kaiser-Dr-95051/home/102172427,MLSListings Inc. (MLSLI),ML81545814,"Bair Properties, Inc.",N,Y,37.3418586,-121.979203,FALSE
Past Sale,Condo/Coop,2927 Via Torino Pl (Unable to map),SANTA CLARA,CA,95051,1039990,2,3,SANTA CLARA,1723,,2016,2,Garage,,Sold,,,,,1039990,2016-03-30,"1,039,990",http://www.redfin.com/CA/Santa-Clara/2927-Via-Torino-Pl-95051/home/103762532,MLSListings Inc. (MLSLI),ML81550187,D R Horton America's Builder,N,Y,37.3412711,-121.98199,FALSE
Past Sale,Single Family Residential,3884 Sullivan Dr,SANTA CLARA,CA,95051,1780000,4,2,SANTA CLARA,2000,9901,1956,3,Garage,,Sold,,,,,1780000,2016-03-30,"1,870,000",http://www.redfin.com/CA/Santa-Clara/3884-Sullivan-Dr-95051/home/1056075,MLSListings Inc. (MLSLI),ML81549795,"Realty One Group, Inc.",N,Y,37.329835,-122.003656,FALSE
Past Sale,Townhouse,2456 Rebecca Lynn Way,SANTA CLARA,CA,95050,749000,2,2.5,SANTA CLARA,1459,1248,1984,2,Garage,,Sold,,,,,749000,2016-03-28,"861,000",http://www.redfin.com/CA/Santa-Clara/2456-Rebecca-Lynn-Way-95050/home/743391,MLSListings Inc. (MLSLI),ML81564289,Intero Real Estate Services,N,Y,37.3342985,-121.965908,FALSE
Past Sale,Single Family Residential,173 Claremont Ave,SANTA CLARA,CA,95051,1199880,3,2,SANTA CLARA,1605,6434,1957,2,Garage,,Sold,,,,,1199880,2016-02-26,"1,200,000",http://www.redfin.com/CA/Santa-Clara/173-Claremont-Ave-95051/home/1791515,MLSListings Inc. (MLSLI),ML81519182,J2 Properties,N,Y,37.326622,-121.991326,FALSE
Past Sale,Condo/Coop,3273 Benton St,SANTA CLARA,CA,95051,649000,4,2.5,SANTA CLARA,1564,675,1962,1,Garage,,Sold,,,,2016-02-24,698000,2016-03-30,"670,000",http://www.redfin.com/CA/Santa-Clara/3273-Benton-St-95051/home/771175,MLSListings Inc. (MLSLI),ML81550261,Benson Real Estate,N,Y,37.345652,-121.986307,FALSE
Past Sale,Condo/Coop,2380 Homestead Rd #3105,SANTA CLARA,CA,95050,499000,1,1,SANTA CLARA,820,820,2007,1,Garage,,Sold,,,,,499000,2016-04-26,"500,000",http://www.redfin.com/CA/Santa-Clara/2380-Homestead-Rd-95050/unit-3105/home/12178923,MLSListings Inc. (MLSLI),ML81564317,Intero Real Estate Services,N,Y,37.341382,-121.966099,FALSE
Past Sale,Single Family Residential,2466 Armstrong Pl,SANTA CLARA,CA,95050,1089000,4,2,SANTA CLARA,1885,5519,1955,2,Garage,,Sold,,,,,1089000,2016-04-29,"1,365,000",http://www.redfin.com/CA/Santa-Clara/2466-Armstrong-Pl-95050/home/738482,MLSListings Inc. (MLSLI),ML81576822,Intero Real Estate Services,N,Y,37.340454,-121.967809,FALSE
Past Sale,Condo/Coop,2469 Rebecca Lynn Way,SANTA CLARA,CA,95050,875000,3,2,SANTA CLARA,1655,1248,1984,2,Garage,,Sold,,,,,875000,2016-05-18,"970,000",http://www.redfin.com/CA/Santa-Clara/2469-Rebecca-Lynn-Way-95050/home/550291,MLSListings Inc. (MLSLI),ML81580143,Intero Real Estate Services,N,Y,37.3343217,-121.9664182,FALSE
Past Sale,Townhouse,2487 Golf Links Cir,SANTA CLARA,CA,95050,980000,3,2.5,SANTA CLARA,1940,2299,1979,2,Garage,,Sold,,,,,980000,2016-05-20,"1,040,000",http://www.redfin.com/CA/Santa-Clara/2487-Golf-Links-Cir-95050/home/1140095,MLSListings Inc. (MLSLI),ML81578804,Intero Real Estate Services,N,Y,37.332004,-121.966309,FALSE
Past Sale,Single Family Residential,1192 Janice Dr,SANTA CLARA,CA,95050,989888,3,2,SANTA CLARA,1440,6494,1954,1,Garage,,Sold,,,,,989888,2016-06-02,"1,030,000",http://www.redfin.com/CA/Santa-Clara/1192-Janice-Dr-95050/home/1047194,MLSListings Inc. (MLSLI),ML81582978,Help U Sell Alpha Paladins Realty,N,Y,37.347841,-121.966162,FALSE
Past Sale,Townhouse,572 Los Olivos Dr,SANTA CLARA,CA,95050,745000,2,2,SANTA CLARA,1573,2208,1981,2,Garage,,Sold,,,,,745000,2016-05-31,"802,000",http://www.redfin.com/CA/Santa-Clara/572-Los-Olivos-Dr-95050/home/550286,MLSListings Inc. (MLSLI),ML81579825,Keller Williams Realty - Cupertino,N,Y,37.335749,-121.964454,FALSE
Past Sale,Single Family Residential,2520 Malone Pl,SANTA CLARA,CA,95050,1399000,4,3,SANTA CLARA,1718,6799,1957,2,Garage,,Sold,,,,,1399,2016-06-07,"1,455,000",http://www.redfin.com/CA/Santa-Clara/2520-Malone-Pl-95050/home/1661952,MLSListings Inc. (MLSLI),ML81582655,Intero Real Estate Services,N,Y,37.339,-121.968044,FALSE
Past Sale,Townhouse,1178 Pomeroy Ave,SANTA CLARA,CA,95051,699888,4,2.5,SANTA CLARA,1476,1536,1963,1,,,Sold,,,,,699888,2016-04-25,"798,000",http://www.redfin.com/CA/Santa-Clara/1178-Pomeroy-Ave-95051/home/1738848,MLSListings Inc. (MLSLI),ML81577571,Intero Real Estate Services,N,Y,37.347236,-121.98718,FALSE
Past Sale,Single Family Residential,3323 Duke Ct,SANTA CLARA,CA,95051,1198000,4,2,SANTA CLARA,1498,6490,1962,2,Garage,,Sold,,,,,1198000,2016-04-27,"1,400,000",http://www.redfin.com/CA/Santa-Clara/3323-Duke-Ct-95051/home/737245,MLSListings Inc. (MLSLI),ML81577894,Sereno Group,N,Y,37.332317,-121.988431,FALSE
Past Sale,Townhouse,3767 Adriatic Way,SANTA CLARA,CA,95051,898000,2,2,SANTA CLARA,1524,1751,1978,2,Garage,,Sold,,,,,898000,2016-04-28,"925,000",http://www.redfin.com/CA/Santa-Clara/3767-Adriatic-Way-95051/home/765501,MLSListings Inc. (MLSLI),ML81564345,Coldwell Banker,N,Y,37.349651,-121.998999,FALSE
Past Sale,Condo/Coop,1061 Alta Mira Dr Unit A,SANTA CLARA,CA,95051,599000,2,2,SANTA CLARA,1067,1768,1971,0,,,Sold,,,,,599000,2016-05-09,"650,000",http://www.redfin.com/CA/Santa-Clara/1061-Alta-Mira-Dr-95051/unit-A/home/885325,MLSListings Inc. (MLSLI),ML81564704,Bailey Properties,N,Y,37.346188,-121.994743,FALSE
Past Sale,Condo/Coop,1041 Alta Mira Dr Unit B,SANTA CLARA,CA,95051,579000,2,2,SANTA CLARA,1012,1768,1971,0,,,Sold,,,,,579000,2016-05-20,"630,000",http://www.redfin.com/CA/Santa-Clara/1041-Alta-Mira-Dr-95051/unit-B/home/1416614,MLSListings Inc. (MLSLI),ML81579103,Realty World-Silicon Valley,N,Y,37.34617,-121.993597,FALSE
Past Sale,Single Family Residential,989 Cherry Ln,SANTA CLARA,CA,95051,799000,3,2,SANTA CLARA,1166,6000,1954,2,Garage,,Sold,,,,,799000,2016-05-19,"896,000",http://www.redfin.com/CA/Santa-Clara/989-Cherry-Ln-95051/home/1414011,MLSListings Inc. (MLSLI),ML81578341,"Realty World-Kevin F. Garvey, Broker",N,Y,37.34337,-121.994155,FALSE
Past Sale,Single Family Residential,678 Cambridge Dr,SANTA CLARA,CA,95051,1275000,4,2,SANTA CLARA,1418,6098,1961,2,Garage,,Sold,,,,,1275000,2016-05-24,"1,350,000",http://www.redfin.com/CA/Santa-Clara/678-Cambridge-Dr-95051/home/1789205,MLSListings Inc. (MLSLI),ML81579912,Keller Williams Realty - Cupertino,N,Y,37.33411,-121.989855,FALSE
Past Sale,Townhouse,3615 Brach Way,SANTA CLARA,CA,95051,924999,2,2.5,SANTA CLARA,1803,1750,1978,2,Garage,,Sold,,,,,924999,2016-05-31,"960,000",http://www.redfin.com/CA/Santa-Clara/3615-Brach-Way-95051/home/1150166,MLSListings Inc. (MLSLI),ML81582421,Redfin,N,Y,37.349675,-121.996602,FALSE
Past Sale,Single Family Residential,3450 Mauricia Ave,SANTA CLARA,CA,95051,1288000,3,2,SANTA CLARA,1401,5937,1957,2,Garage,,Sold,,,,,1288000,2016-06-02,"1,505,000",http://www.redfin.com/CA/Santa-Clara/3450-Mauricia-Ave-95051/home/1154100,MLSListings Inc. (MLSLI),ML81581413,"Nautilus Global Real Estate, Inc",N,Y,37.3270184,-121.9918378,FALSE
Past Sale,Single Family Residential,650 Hudson Dr,SANTA CLARA,CA,95051,1388000,5,2.5,SANTA CLARA,1996,7954,1957,2,Garage,,Sold,,,,2016-04-20,1595000,2016-05-31,"1,450,000",http://www.redfin.com/CA/Santa-Clara/650-Hudson-Dr-95051/home/745805,MLSListings Inc. (MLSLI),ML81577570,California Realty,N,Y,37.333295,-121.999253,FALSE
Past Sale,Single Family Residential,3563 Golden State Dr,SANTA CLARA,CA,95051,778000,4,2,SANTA CLARA,1356,5130,1954,1,Garage,,Sold,,,,,778000,2016-05-20,"855,000",http://www.redfin.com/CA/Santa-Clara/3563-Golden-State-Dr-95051/home/734045,MLSListings Inc. (MLSLI),ML81534127,Intero Real Estate Services,N,Y,37.3437968,-121.9942287,FALSE
Past Sale,Single Family Residential,150 Elmhurst Ct,SANTA CLARA,CA,95051,1300000,3,1.5,,1401,4356,1957,2,Garage,,Sold,,,,2016-04-21,1395000,2016-06-06,"1,225,000",http://www.redfin.com/CA/Santa-Clara/150-Elmhurst-Ct-95051/home/1149426,Central Coast Regional MLS,1064337,Kimberly's Global Real Estate Corporation,N,Y,37.326093,-121.992296,FALSE
Past Sale,Single Family Residential,3024 Cameron Way,SANTA CLARA,CA,95051,1000000,3,2,SANTA CLARA,1240,5301,1954,2,Garage,,Sold,,,,,1000000,2016-05-13,"1,100,000",http://www.redfin.com/CA/Santa-Clara/3024-Cameron-Way-95051/home/1177559,MLSListings Inc. (MLSLI),ML81582270,Intero Real Estate Services,N,Y,37.326099,-121.98074,FALSE
Past Sale,Single Family Residential,3158 Atherton Dr,SANTA CLARA,CA,95051,1250000,3,2,SANTA CLARA,1136,5989,1957,6,Garage,,Sold,,,,,1250000,2016-05-19,"1,443,000",http://www.redfin.com/CA/Santa-Clara/3158-Atherton-Dr-95051/home/885537,MLSListings Inc. (MLSLI),ML81579494,"Realty World-Kevin F. Garvey, Broker",N,Y,37.328755,-121.985325,FALSE
Past Sale,Single Family Residential,167 Kellogg Way,SANTA CLARA,CA,95051,1399000,4,2,SANTA CLARA,1609,7858,1958,2,Garage,,Sold,,,,,1399000,2016-05-25,"1,618,000",http://www.redfin.com/CA/Santa-Clara/167-Kellogg-Way-95051/home/1450079,MLSListings Inc. (MLSLI),ML81580414,Coldwell Banker,N,Y,37.326425,-121.983418,FALSE
Past Sale,Single Family Residential,3020 Miles,SANTA CLARA,CA,95051,1368000,4,2.5,SANTA CLARA,1618,3175,2015,2,Garage,,Sold,,,,2016-04-08,1418000,2016-05-27,"1,348,000",http://www.redfin.com/CA/Santa-Clara/3020-Miles-Dr-95051/home/88634827,MLSListings Inc. (MLSLI),ML81577059,Real Estate Advantage Group,N,Y,37.3388181,-121.9832679,FALSE
Past Sale,Condo/Coop,2965 Via Torino Pl (Unable to map),SANTA CLARA,CA,95051,1035880,3,3.5,SANTA CLARA,1600,1000,2016,2,Garage,,Sold,,,,2016-04-07,1078990,2016-06-02,"1,035,880",http://www.redfin.com/CA/Santa-Clara/2965-Via-Torino-Pl-95051/home/104011773,MLSListings Inc. (MLSLI),ML81577123,"Bair Properties, Inc.",N,Y,37.3412711,-121.98199,FALSE
Past Sale,Single Family Residential,3168 Via Siena Pl (Unable to map),SANTA CLARA,CA,95051,1274500,3,2.5,SANTA CLARA,1762,2539,2015,2,Garage,,Sold,,,,2016-04-29,1398888,2016-06-03,"1,349,000",http://www.redfin.com/CA/Santa-Clara/3168-Via-Siena-Pl-95051/home/95957668,MLSListings Inc. (MLSLI),ML81565667,KW Bay Area Estates,N,Y,37.3402163,-121.9801115,FALSE
Past Sale,Condo/Coop,980 Kiely Blvd #327,SANTA CLARA,CA,95051,359000,1,1,SANTA CLARA,622,696,1971,0,,,Sold,,,,,359000,2016-06-03,"365,000",http://www.redfin.com/CA/Santa-Clara/980-Kiely-Blvd-95051/unit-327/home/740762,MLSListings Inc. (MLSLI),ML81583208,Century 21-Alpha,N,Y,37.343308,-121.980085,FALSE
Past Sale,Townhouse,831 Pomeroy Ave #8,SANTA CLARA,CA,95051,599000,3,1.5,SANTA CLARA,1113,2577,1964,0,,,Sold,,,,,599000,2016-06-07,"626,000",http://www.redfin.com/CA/Santa-Clara/831-Pomeroy-Ave-95051/unit-8/home/1066609,MLSListings Inc. (MLSLI),ML81581956,Intero Real Estate Services,N,Y,37.338553,-121.9871,FALSE
Past Sale,Townhouse,1147 Pomeroy Ave,SANTA CLARA,CA,95051,599000,4,2.5,SANTA CLARA,1564,675,1962,1,,,Sold,,,,,599000,2016-06-09,"660,000",http://www.redfin.com/CA/Santa-Clara/1147-Pomeroy-Ave-95051/home/736027,MLSListings Inc. (MLSLI),ML81588172,Coldwell Banker,N,Y,37.346867,-121.985391,FALSE
Past Sale,Single Family Residential,921 Live Oak Dr,SANTA CLARA,CA,95051,1150000,4,2,SANTA CLARA,1762,6480,1960,2,Garage,,Sold,,,,,1150000,2016-06-10,"1,300,000",http://www.redfin.com/CA/Santa-Clara/921-Live-Oak-Dr-95051/home/734392,MLSListings Inc. (MLSLI),ML81587413,Mainstream Real Estate Group Inc.,N,Y,37.341781,-121.984754,FALSE
Past Sale,Multi-Family (2-4 Unit),921/923 Live Oak Dr,SANTA CLARA,CA,95051,1150000,4,,SANTA CLARA,1762,6481,1960,2,Garage,,Sold,,,,,1150000,2016-06-10,"1,300,000",http://www.redfin.com/CA/Santa-Clara/923-Live-Oak-Dr-95051/home/105645627,MLSListings Inc. (MLSLI),ML81587442,Mainstream Real Estate Group Inc.,N,Y,37.3417946,-121.9847795,FALSE
Past Sale,Condo/Coop,151 Buckingham Dr #252,SANTA CLARA,CA,95051,505000,1,1,SANTA CLARA,862,945,1969,0,,,Sold,,,,2015-12-23,519000,2016-03-25,"445,000",http://www.redfin.com/CA/Santa-Clara/151-Buckingham-Dr-95051/unit-252/home/1545019,MLSListings Inc. (MLSLI),ML81520745,Out of Area Office,N,Y,37.326622,-121.971376,FALSE
Past Sale,Single Family Residential,2681 Rebeiro Ave,SANTA CLARA,CA,95051,1198000,3,2,SANTA CLARA,1254,5346,1955,2,Garage,,Sold,,,,,1198000,2016-04-13,"1,250,000",http://www.redfin.com/CA/Santa-Clara/2681-Rebeiro-Ave-95051/home/1414380,MLSListings Inc. (MLSLI),ML81562045,Keller Williams Palo Alto,N,Y,37.335388,-121.971733,FALSE
Past Sale,Condo/Coop,120 Saratoga Ave #105,SANTA CLARA,CA,95051,398000,1,1,SANTA CLARA,656,760,1969,1,Garage,,Sold,,,,,398000,2016-04-21,"405,000",http://www.redfin.com/CA/Santa-Clara/120-Saratoga-Ave-95051/unit-105/home/1232899,MLSListings Inc. (MLSLI),ML81565089,CSR Real Estate Services,N,Y,37.325897,-121.969695,FALSE
Past Sale,Single Family Residential,723 Salberg Ave,SANTA CLARA,CA,95051,928000,3,2,SANTA CLARA,1530,5742,1954,2,Garage,,Sold,,,,,928000,2016-04-22,"1,186,800",http://www.redfin.com/CA/Santa-Clara/723-Salberg-Ave-95051/home/982610,MLSListings Inc. (MLSLI),ML81564326,Realty World-Archer Miller,N,Y,37.337378,-121.971793,FALSE
Past Sale,Single Family Residential,250 Manzanita Ave,SANTA CLARA,CA,95051,1599000,4,2,SANTA CLARA,1687,9774,1963,2,Garage,,Sold,,,,,1599000,2016-04-29,"1,670,000",http://www.redfin.com/CA/Santa-Clara/250-Manzanita-Ave-95051/home/1335773,MLSListings Inc. (MLSLI),ML81565436,Keller Williams Realty - Cupertino,N,Y,37.327573,-121.977277,FALSE
Past Sale,Single Family Residential,723 ROGERS Ct,SANTA CLARA,CA,95051,950000,3,2,SANTA CLARA,1254,5104,1955,2,Garage,,Sold,,,,,950000,2016-05-04,"1,160,000",http://www.redfin.com/CA/Santa-Clara/723-Rogers-Ct-95051/home/1486393,MLSListings Inc. (MLSLI),ML81566160,RE/MAX Real Estate Services,N,Y,37.337099,-121.972557,FALSE
Past Sale,Condo/Coop,151 Buckingham Dr #217,SANTA CLARA,CA,95051,659000,2,2,SANTA CLARA,1260,1258,1969,2,Garage,,Sold,,,,,659000,2016-05-06,"738,000",http://www.redfin.com/CA/Santa-Clara/151-Buckingham-Dr-95051/unit-217/home/744541,MLSListings Inc. (MLSLI),ML81578104,KW Bay Area Estates,N,Y,37.326622,-121.971376,FALSE
Past Sale,Single Family Residential,410 Kiely Blvd,SANTA CLARA,CA,95051,1099950,4,2,SANTA CLARA,1672,8141,1960,3,Garage,,Sold,,,,,1099950,2016-05-13,"1,250,000",http://www.redfin.com/CA/Santa-Clara/410-Kiely-Blvd-95051/home/610222,MLSListings Inc. (MLSLI),ML81562801,Intero Real Estate Services,N,Y,37.330516,-121.975139,FALSE
Past Sale,Single Family Residential,2699 Maplewood Ln,SANTA CLARA,CA,95051,1649950,4,3,SANTA CLARA,2537,12400,1972,2,Garage,,Sold,,,,,1649950,2016-05-16,"1,645,000",http://www.redfin.com/CA/Santa-Clara/2699-Maplewood-Ln-95051/home/800239,MLSListings Inc. (MLSLI),ML81565888,Windermere Silicon Valley,N,Y,37.331254,-121.971608,FALSE
Past Sale,Single Family Residential,2683 Tuliptree Ln,SANTA CLARA,CA,95051,1588888,4,2,SANTA CLARA,2031,9600,1972,2,Garage,,Sold,,,,,1588888,2016-05-27,"1,650,000",http://www.redfin.com/CA/Santa-Clara/2683-Tuliptree-Ln-95051/home/741771,MLSListings Inc. (MLSLI),ML81563436,Realcom Associates,N,Y,37.330605,-121.971256,FALSE
Past Sale,Single Family Residential,1232 Las Palmas Dr,SANTA CLARA,CA,95051,799950,3,2,SANTA CLARA,1380,5998,1955,2,Garage,,Sold,,,,,799950,2016-06-01,"980,000",http://www.redfin.com/CA/Santa-Clara/1232-Las-Palmas-Dr-95051/home/1177205,MLSListings Inc. (MLSLI),ML81585425,Keller Williams Realty-Silicon Valley,N,Y,37.348146,-121.970387,FALSE
Past Sale,Single Family Residential,2678 Gamblin Dr,SANTA CLARA,CA,95051,1649000,5,2.5,SANTA CLARA,2702,8049,1976,2,Garage,,Sold,,,,,1649000,2016-06-08,"1,800,000",http://www.redfin.com/CA/Santa-Clara/2678-Gamblin-Dr-95051/home/1226220,MLSListings Inc. (MLSLI),ML81582185,Better Homes & Gardens Real EstateVentura Barnett,N,Y,37.32911,-121.971579,FALSE
Past Sale,Single Family Residential,970 Teal Dr,SANTA CLARA,CA,95051,1388000,3,2,SANTA CLARA,1388,6159,1961,2,Garage,,Sold,,,,,1388000,2016-01-28,"1,400,000",http://www.redfin.com/CA/Santa-Clara/970-Teal-Dr-95051/home/882832,MLSListings Inc. (MLSLI),ML81535100,Realcom Associates,N,Y,37.34341,-122.002781,FALSE
Past Sale,Single Family Residential,563 Hubbard Ave,SANTA CLARA,CA,95051,1288000,4,2,SANTA CLARA,1523,6365,1959,2,Garage,,Sold,,,,,1288000,2016-02-16,"1,575,000",http://www.redfin.com/CA/Santa-Clara/563-Hubbard-Ave-95051/home/1837841,MLSListings Inc. (MLSLI),ML81546046,Maxreal,N,Y,37.331295,-122.002717,FALSE
Past Sale,Single Family Residential,3555 Butcher Dr,SANTA CLARA,CA,95051,868000,3,2,SANTA CLARA,1166,5557,1954,2,Garage,,Sold,,,,,868000,2016-01-05,"920,000",http://www.redfin.com/CA/Santa-Clara/3555-Butcher-Dr-95051/home/1661747,MLSListings Inc. (MLSLI),ML81522196,Keller Williams Realty - Cupertino,N,Y,37.343087,-121.993962,FALSE
Past Sale,Single Family Residential,1071 Waterbird Way,SANTA CLARA,CA,95051,1550000,4,3,SANTA CLARA,1784,7168,1961,2,Garage,,Sold,,,,,1550000,2016-01-29,"1,500,000",http://www.redfin.com/CA/Santa-Clara/1071-Waterbird-Way-95051/home/1631544,MLSListings Inc. (MLSLI),ML81517600,Realty World Premier Properties,N,Y,37.346233,-121.998433,FALSE
Past Sale,Single Family Residential,2553 Hayward Dr,SANTA CLARA,CA,95051,966950,3,2,SANTA CLARA,1493,6146,1955,2,Garage,,Sold,,,,,966950,2016-04-06,"1,040,000",http://www.redfin.com/CA/Santa-Clara/2553-Hayward-Dr-95051/home/1343266,MLSListings Inc. (MLSLI),ML81564506,RE/MAX Real Estate Services,N,Y,37.3446475,-121.9728881,FALSE
Past Sale,Single Family Residential,772 Cornell Dr,SANTA CLARA,CA,95051,1150000,4,2,SANTA CLARA,1760,6305,1961,2,Garage,,Sold,,,,,1150000,2016-03-16,"1,275,000",http://www.redfin.com/CA/Santa-Clara/772-Cornell-Dr-95051/home/737264,MLSListings Inc. (MLSLI),ML81548978,Intero Real Estate Services,N,Y,37.337146,-121.986362,FALSE
Past Sale,Single Family Residential,3762 Carlysle Ave,SANTA CLARA,CA,95051,1180000,3,2,SANTA CLARA,1147,5985,1956,2,Garage,,Sold,,,,,1180000,2016-04-08,"1,305,000",http://www.redfin.com/CA/Santa-Clara/3762-Carlysle-Ave-95051/home/971958,MLSListings Inc. (MLSLI),ML81563973,Intero Real Estate Services,N,Y,37.33356,-121.999175,FALSE
Past Sale,Single Family Residential,1021 Waterbird Way,SANTA CLARA,CA,95051,1400000,4,2,SANTA CLARA,1568,12998,1961,2,Garage,,Sold,,,,,1400000,2016-02-25,"1,550,000",http://www.redfin.com/CA/Santa-Clara/1021-Waterbird-Way-95051/home/847192,MLSListings Inc. (MLSLI),ML81546799,Keller Williams Realty - Cupertino,N,Y,37.345296,-121.998392,FALSE
Past Sale,Single Family Residential,3010 Miles Dr,SANTA CLARA,CA,95051,1298000,3,2.5,SANTA CLARA,1326,4125,2015,2,Garage,,Sold,,,,,1298000,2016-01-21,"1,287,000",http://www.redfin.com/CA/Santa-Clara/3010-Miles-Dr-95051/home/101737379,MLSListings Inc. (MLSLI),ML81520395,Real Estate Advantage Group,N,Y,37.3388184,-121.9832679,FALSE
Past Sale,Single Family Residential,3023 Homestead Rd,Santa Clara,CA,95051,,5,3,95051,1915,,1915,,,,,,,,,,2016-01-12,"1,850,000",http://www.redfin.com/CA/Santa-Clara/3023-Homestead-Rd-95051/home/95957657,,,,N,Y,37.338211,-121.983162,
Past Sale,Single Family Residential,3032 Via Siena Pl (Unable to map),Santa Clara,CA,95051,,4,2.5,95051,1957,,2015,,,,,,,,,,2016-01-08,"1,299,000",http://www.redfin.com/CA/Santa-Clara/3032-Via-Siena-Pl-95051/home/95957649,,,,N,Y,37.340796,-121.9820244,
Past Sale,Single Family Residential,2965 Miles Dr,SANTA CLARA,CA,95051,1224888,3,2,SANTA CLARA,1425,6302,1957,2,Garage,,Sold,,,,,1199888,2016-01-21,"1,212,000",http://www.redfin.com/CA/Santa-Clara/2965-Miles-Dr-95051/home/1603880,MLSListings Inc. (MLSLI),ML81519684,Realty Pro,N,Y,37.339046,-121.982459,FALSE
Past Sale,Townhouse,3037-B Kaiser Dr # B Unit 3037-B,SANTA CLARA,CA,95051,529000,2,1.5,SANTA CLARA,1097,,1980,0,,,Sold,,,,,529000,2016-03-17,"530,000",http://www.redfin.com/CA/Santa-Clara/3037-Kaiser-Dr-95051/unit-3037-B/home/103849217,MLSListings Inc. (MLSLI),ML81550866,Century 21-Hallmark,N,Y,37.3435578,-121.9821582,FALSE
Past Sale,Condo/Coop,2913 Via Torino Pl (Unable to map),SANTA CLARA,CA,95051,1094000,3,3.5,SANTA CLARA,1730,,2016,2,Garage,,Sold,,,,,1094000,2016-03-22,"1,094,000",http://www.redfin.com/CA/Santa-Clara/2913-Via-Torino-Pl-95051/home/103651052,MLSListings Inc. (MLSLI),ML81549309,D R Horton America's Builder,N,Y,37.3412711,-121.98199,FALSE
Past Sale,Condo/Coop,2955 Via Roma Pl #41,SANTA CLARA,CA,95050,898880,2,2.5,SANTA CLARA,1401,,2015,2,Garage,,Sold,,,,2015-11-27,1115000,2016-01-21,"889,880",http://www.redfin.com/CA/Santa-Clara/2955-Via-Roma-Pl-95051/unit-41/home/102086311,MLSListings Inc. (MLSLI),ML81533444,D R Horton America's Builder,N,Y,37.3421908,-121.9790155,FALSE
Past Sale,Condo/Coop,986 Kiely Blvd Unit D,SANTA CLARA,CA,95051,447888,2,1,SANTA CLARA,882,923,1971,0,,,Sold,,,,,447888,2016-02-17,"520,000",http://www.redfin.com/CA/Santa-Clara/986-Kiely-Blvd-95051/unit-D/home/738750,MLSListings Inc. (MLSLI),ML81547875,Realty World Villa California,N,Y,37.343642,-121.978435,FALSE
Past Sale,Condo/Coop,2853 Kaiser Dr #64,SANTA CLARA,CA,95051,979990,2,3,SANTA CLARA,1822,1000,2016,2,Garage,,Sold,,,,,979990,2016-03-17,"979,990",http://www.redfin.com/CA/Santa-Clara/2853-Kaiser-Dr-95051/unit-64/home/103508083,MLSListings Inc. (MLSLI),ML81548889,"Bair Properties, Inc.",N,Y,37.3418586,-121.979203,FALSE
Past Sale,Condo/Coop,835 Bing Dr #8,SANTA CLARA,CA,95051,469000,2,2,SANTA CLARA,937,1001,1973,0,,,Sold,,,,,469000,2016-03-15,"565,000",http://www.redfin.com/CA/Santa-Clara/835-Bing-Dr-95051/unit-8/home/1176735,MLSListings Inc. (MLSLI),ML81562751,Next Century Realty,N,Y,37.338935,-121.9927074,FALSE
Past Sale,Condo/Coop,2951 Via Roma Pl #35 (Unable to map),SANTA CLARA,CA,95051,978990,2,3,SANTA CLARA,1822,,2015,2,Garage,,Sold,,,,,978990,2016-01-28,"960,000",http://www.redfin.com/CA/Santa-Clara/2951-Via-Roma-Pl-95051/unit-35/home/101779525,MLSListings Inc. (MLSLI),ML81521174,D R Horton America's Builder,N,Y,37.3421908,-121.9790155,FALSE
Past Sale,Condo/Coop,962 Kiely Blvd Unit B,SANTA CLARA,CA,95051,359000,1,1,SANTA CLARA,670,436,1971,0,,,Sold,,,,,359000,2016-02-11,"387,000",http://www.redfin.com/CA/Santa-Clara/962-Kiely-Blvd-95051/unit-B/home/740667,MLSListings Inc. (MLSLI),ML81548473,Alain Pinel Realtors,N,Y,37.342517,-121.980883,FALSE
Past Sale,Condo/Coop,968 Kiely Blvd Unit F,SANTA CLARA,CA,95051,499000,2,1.5,SANTA CLARA,992,528,1971,0,,,Sold,,,,,499000,2016-03-09,"540,000",http://www.redfin.com/CA/Santa-Clara/968-Kiely-Blvd-95051/unit-F/home/740682,MLSListings Inc. (MLSLI),ML81551097,Coldwell Banker,N,Y,37.342825,-121.981137,FALSE
Past Sale,Condo/Coop,966 Kiely Blvd Unit A,SANTA CLARA,CA,95051,350000,1,1,SANTA CLARA,680,436,1971,0,,,Sold,,,,,350000,2016-03-11,"367,000",http://www.redfin.com/CA/Santa-Clara/966-Kiely-Blvd-95051/unit-A/home/739246,MLSListings Inc. (MLSLI),ML81550548,Intero Real Estate Services,N,Y,37.342936,-121.98093,FALSE
Past Sale,Single Family Residential,3487 GOLDEN STATE Dr,SANTA CLARA,CA,95051,888000,3,2,SANTA CLARA,1400,5000,1954,2,Garage,,Sold,,,,,888000,2016-03-09,"1,041,888",http://www.redfin.com/CA/Santa-Clara/3487-Golden-State-Dr-95051/home/1167103,MLSListings Inc. (MLSLI),ML81548890,Keller Williams Realty - Cupertino,N,Y,37.343801,-121.991644,FALSE
Past Sale,Single Family Residential,3400 Eden Dr,SANTA CLARA,CA,95051,1199000,3,2,SANTA CLARA,1305,8690,1960,2,Garage,,Sold,,,,,1199000,2016-01-22,"1,340,000",http://www.redfin.com/CA/Santa-Clara/3400-Eden-Dr-95051/home/1454888,MLSListings Inc. (MLSLI),ML81534565,Coldwell Banker,N,Y,37.332205,-121.990145,FALSE
Past Sale,Condo/Coop,980 Kiely Blvd #301,SANTA CLARA,CA,95051,389000,1,1,SANTA CLARA,622,696,1971,0,,,Sold,,,,2016-02-11,394950,2016-04-05,"393,000",http://www.redfin.com/CA/Santa-Clara/980-Kiely-Blvd-95051/unit-301/home/739296,MLSListings Inc. (MLSLI),ML81549215,South Bay Realty,N,Y,37.343308,-121.980085,FALSE
Past Sale,Condo/Coop,982 Kiely Blvd Unit A,SANTA CLARA,CA,95051,289000,1,1,SANTA CLARA,440,483,1971,0,,,Sold,,,,,289000,2016-03-31,"320,000",http://www.redfin.com/CA/Santa-Clara/982-Kiely-Blvd-95051/unit-A/home/1497944,MLSListings Inc. (MLSLI),ML81562065,Shellwood Investment,N,Y,37.343566,-121.978934,FALSE
Past Sale,Single Family Residential,3412 Wheeling Dr,SANTA CLARA,CA,95051,1275000,3,2,SANTA CLARA,1715,5998,1960,2,Garage,,Sold,,,,,1275000,2016-03-31,"1,290,000",http://www.redfin.com/CA/Santa-Clara/3412-Wheeling-Dr-95051/home/1789225,MLSListings Inc. (MLSLI),ML81563151,Keller Williams Realty - Cupertino,N,Y,37.33288,-121.990786,FALSE
Past Sale,Condo/Coop,934 Kiely Blvd Unit D,SANTA CLARA,CA,95051,319000,1,1,SANTA CLARA,440,484,1971,1,Garage,,Sold,,,,,319000,2016-04-15,"319,000",http://www.redfin.com/CA/Santa-Clara/934-Kiely-Blvd-95051/unit-D/home/738730,MLSListings Inc. (MLSLI),ML81562098,"Realty World-Kevin F. Garvey, Broker",N,Y,37.342866,-121.978385,FALSE
Past Sale,Townhouse,3439 Homestead Rd,SANTA CLARA,CA,95051,899000,3,2.5,SANTA CLARA,1620,3371,1979,2,Garage,,Sold,,,,,899000,2016-04-14,"920,000",http://www.redfin.com/CA/Santa-Clara/3439-Homestead-Rd-95051/home/1614188,MLSListings Inc. (MLSLI),ML81563618,Intero Real Estate Services,N,Y,37.338355,-121.991327,FALSE
Past Sale,Single Family Residential,733 Hamilton Ln,SANTA CLARA,CA,95051,875000,3,1,SANTA CLARA,900,5253,1955,1,Garage,,Sold,,,,,875000,2016-04-19,"875,000",http://www.redfin.com/CA/Santa-Clara/733-Hamilton-Ln-95051/home/1529771,MLSListings Inc. (MLSLI),ML81577688,Coldwell Banker,N,Y,37.336138,-121.980228,FALSE
Past Sale,Condo/Coop,1400 Bowe Ave #1310,SANTA CLARA,CA,95051,649000,2,2,SANTA CLARA,1062,1258,1986,1,Garage,,Sold,,,,,649000,2016-03-03,"690,000",http://www.redfin.com/CA/Santa-Clara/1400-Bowe-Ave-95051/unit-1310/home/1672721,MLSListings Inc. (MLSLI),ML81548103,Intero Real Estate Services,N,Y,37.3497134,-121.9747449,FALSE
Past Sale,Single Family Residential,1279 Los Padres Blvd,SANTA CLARA,CA,95050,850000,3,1,SANTA CLARA,1238,6600,1955,2,Garage,,Sold,,,,,850000,2016-03-08,"993,000",http://www.redfin.com/CA/Santa-Clara/1279-Los-Padres-Blvd-95050/home/885313,MLSListings Inc. (MLSLI),ML81550447,RE/MAX Real Estate Services,N,Y,37.348744,-121.964631,FALSE
Past Sale,Single Family Residential,2643 Toledo Ave,SANTA CLARA,CA,95051,1190000,3,2,SANTA CLARA,1657,5292,1954,2,Garage,,Sold,,,,,1190000,2016-03-24,"1,340,000",http://www.redfin.com/CA/Santa-Clara/2643-Toledo-Ave-95051/home/1673204,MLSListings Inc. (MLSLI),ML81549846,"Slava Real Estate, Inc.",N,Y,37.337333,-121.970797,FALSE
Past Sale,Condo/Coop,151 Buckingham Dr #229,SANTA CLARA,CA,95051,600000,2,2,SANTA CLARA,1260,1258,1969,1,Garage,,Sold,,,,,600000,2016-04-07,"675,000",http://www.redfin.com/CA/Santa-Clara/151-Buckingham-Dr-95051/unit-229/home/1047430,MLSListings Inc. (MLSLI),ML81561714,Coldwell Banker,N,Y,37.326622,-121.971376,FALSE
Past Sale,Townhouse,155 Kiely Blvd,SANTA CLARA,CA,95051,858000,2,2.5,SANTA CLARA,1300,1560,1976,1,Garage,,Sold,,,,2016-03-09,898000,2016-04-08,"855,000",http://www.redfin.com/CA/Santa-Clara/155-Kiely-Blvd-95051/home/741051,MLSListings Inc. (MLSLI),ML81549239,Realty One Group - World Properties,N,Y,37.325679,-121.974289,FALSE
Past Sale,Single Family Residential,2809 Ruth Ct,SANTA CLARA,CA,95051,1088000,3,2,SANTA CLARA,1145,5405,1956,2,Garage,,Sold,,,,,1088000,2016-03-21,"1,200,000",http://www.redfin.com/CA/Santa-Clara/2809-Ruth-Ct-95051/home/1470188,MLSListings Inc. (MLSLI),ML81548762,Alain Pinel Realtors,N,Y,37.33493,-121.975186,FALSE
Past Sale,Single Family Residential,742 Pritchard Ct,SANTA CLARA,CA,95051,1089000,3,2,SANTA CLARA,1692,5940,1955,2,Garage,,Sold,,,,,1089000,2016-04-17,"1,200,000",http://www.redfin.com/CA/Santa-Clara/742-Pritchard-Ct-95051/home/1199388,MLSListings Inc. (MLSLI),ML81564301,Sereno Group,N,Y,37.337032,-121.974987,FALSE
Past Sale,Single Family Residential,2846 Ramona Ct,SANTA CLARA,CA,95051,1148888,3,2,SANTA CLARA,1481,9761,1956,5,Garage,,Sold,,,,,1148888,2016-02-05,"1,265,000",http://www.redfin.com/CA/Santa-Clara/2846-Ramona-Ct-95051/home/1564687,MLSListings Inc. (MLSLI),ML81545790,Intero Real Estate Services,N,Y,37.337485,-121.977677,FALSE
Past Sale,Single Family Residential,2757 Toledo Ave,SANTA CLARA,CA,95051,1149888,3,2,SANTA CLARA,1254,5626,1955,2,Garage,,Sold,,,,,1149888,2016-01-12,"1,260,000",http://www.redfin.com/CA/Santa-Clara/2757-Toledo-Ave-95051/home/1060127,MLSListings Inc. (MLSLI),ML81523040,Intero Real Estate Services,N,Y,37.336135,-121.974078,FALSE
Past Sale,Single Family Residential,716 Kiely Blvd,SANTA CLARA,CA,95051,1048888,3,2,SANTA CLARA,1145,5300,1956,2,Garage,,Sold,,,,,1048888,2016-02-08,"1,000,000",http://www.redfin.com/CA/Santa-Clara/716-Kiely-Blvd-95051/home/1497876,MLSListings Inc. (MLSLI),ML81534110,Intero Real Estate Services,N,Y,37.335793,-121.975336,FALSE
Past Sale,Condo/Coop,1400 Bowe Ave Apt 312,Santa Clara,CA,95051,,2,2,95051,1062,,1984,,,,,,,,,,2016-01-08,"650,000",http://www.redfin.com/CA/Santa-Clara/1400-Bowe-Ave-95051/unit-312/home/1837189,,,,N,Y,37.3497134,-121.9747449,
Past Sale,Single Family Residential,2602 Lindentree Ln,SANTA CLARA,CA,95051,1499000,4,2.5,SANTA CLARA,2274,10860,1974,2,Garage,,Sold,,,,2015-11-19,1699000,2016-02-10,"1,520,000",http://www.redfin.com/CA/Santa-Clara/2602-Lindentree-Ln-95051/home/1645621,MLSListings Inc. (MLSLI),ML81518765,Intero Real Estate Services,N,Y,37.332248,-121.968036,FALSE
Past Sale,Condo/Coop,150 Saratoga Ave #306,SANTA CLARA,CA,95051,698500,3,2,SANTA CLARA,1442,1576,1969,2,Garage,,Sold,,,,,698500,2016-03-31,"800,000",http://www.redfin.com/CA/Santa-Clara/150-Saratoga-Ave-95051/unit-306/home/1470654,MLSListings Inc. (MLSLI),ML81562083,Coldwell Banker,N,Y,37.3264809,-121.9675893,FALSE
Past Sale,Condo/Coop,121 Buckingham Dr #42,SANTA CLARA,CA,95051,299000,1,1,SANTA CLARA,656,740,1969,1,Garage,,Sold,,,,,299000,2016-02-11,"400,000",http://www.redfin.com/CA/Santa-Clara/121-Buckingham-Dr-95051/unit-42/home/1635218,MLSListings Inc. (MLSLI),ML81547817,Silicon Valley Heights,N,Y,37.325941,-121.9708105,FALSE
Past Sale,Multi-Family (2-4 Unit),90 Kiely Blvd,SANTA CLARA,CA,95051,1498000,4,,SANTA CLARA,2567,6599,1962,3,Garage,,Sold,,,,,1498000,2016-03-25,"1,510,000",http://www.redfin.com/CA/Santa-Clara/90-Kiely-Blvd-95051/home/1486412,MLSListings Inc. (MLSLI),ML81549972,Intero Real Estate Services,N,Y,37.3246832,-121.9753946,FALSE
Past Sale,Townhouse,149 Kiely Blvd,SANTA CLARA,CA,95051,875000,2,2.5,SANTA CLARA,1300,,1976,2,Garage,,Sold,,,,,875000,2016-03-18,"875,000",http://www.redfin.com/CA/Santa-Clara/149-Kiely-Blvd-95051/home/741113,MLSListings Inc. (MLSLI),ML81550468,First Metro Investments,N,Y,37.325513,-121.974286,FALSE
Past Sale,Condo/Coop,946 Kiely Blvd Unit E,SANTA CLARA,CA,95051,479950,2,2,SANTA CLARA,956,435,1971,1,,,Sold,,,,,479950,2016-01-22,"505,000",http://www.redfin.com/CA/Santa-Clara/946-Kiely-Blvd-95051/unit-0E/home/12297885,MLSListings Inc. (MLSLI),ML81534104,Kor-am Property & Investment,N,Y,37.3429519,-121.979747,FALSE
Past Sale,Condo/Coop,1400 Bowe Ave #1606,SANTA CLARA,CA,95051,499900,1,1,SANTA CLARA,825,1119,1986,0,,,Sold,,,,,499900,2016-03-28,"525,000",http://www.redfin.com/CA/Santa-Clara/1400-Bowe-Ave-95051/unit-1606/home/735907,MLSListings Inc. (MLSLI),ML81548823,Lyon RE Folsom,N,Y,37.3497134,-121.9747449,FALSE
Past Sale,Condo/Coop,1059 Alta Mira Dr Unit B,SANTA CLARA,CA,95051,579000,2,2,SANTA CLARA,1012,1768,1971,0,,,Sold,,,,,579000,2016-03-30,"603,000",http://www.redfin.com/CA/Santa-Clara/1059-Alta-Mira-Dr-95051/unit-B/home/1682616,MLSListings Inc. (MLSLI),ML81562449,Sereno Group,N,Y,37.3461969,-121.994667,FALSE
Past Sale,Townhouse,3005 Kaiser Dr Unit C,SANTA CLARA,CA,95051,488000,2,1.5,SANTA CLARA,1097,544,1971,0,,,Sold,,,,2016-03-04,498000,2016-04-05,"525,000",http://www.redfin.com/CA/Santa-Clara/3005-Kaiser-Dr-95051/unit-C/home/1149283,MLSListings Inc. (MLSLI),ML81562110,Keller Williams Realty - Cupertino,N,Y,37.342194,-121.981712,FALSE
Past Sale,Condo/Coop,934 Kiely Blvd Unit G,SANTA CLARA,CA,95051,265000,1,1,SANTA CLARA,440,484,1971,0,,,Sold,,,,,265000,2016-03-04,"301,000",http://www.redfin.com/CA/Santa-Clara/934-Kiely-Blvd-95051/unit-G/home/736619,MLSListings Inc. (MLSLI),ML81546065,Sereno Group,N,Y,37.342866,-121.978385,FALSE
Past Sale,Single Family Residential,643 Azevedo Ct,SANTA CLARA,CA,95051,1149888,3,2,SANTA CLARA,1254,6417,1955,2,Garage,,Sold,,,,,1149888,2016-03-31,"1,200,000",http://www.redfin.com/CA/Santa-Clara/643-Azevedo-Ct-95051/home/740235,MLSListings Inc. (MLSLI),ML81562186,Intero Real Estate Services,N,Y,37.3345401,-121.9729824,FALSE
Past Sale,Single Family Residential,478 Bancroft St,SANTA CLARA,CA,95051,1425800,4,3,SANTA CLARA,2285,8200,1960,2,Garage,,Sold,,,,,1425800,2016-04-12,"1,487,129",http://www.redfin.com/CA/Santa-Clara/478-Bancroft-St-95051/home/1753782,MLSListings Inc. (MLSLI),ML81562960,Realty World RFP Realty,N,Y,37.3311785,-121.9800291,FALSE
Past Sale,Single Family Residential,3563 Elmhurst Ave,Santa Clara,CA,95051,,3,1,95051,1455,,1959,,,,,,,,,,2016-01-08,"165,000",http://www.redfin.com/CA/Santa-Clara/3563-Elmhurst-Ave-95051/home/1699524,,,,N,Y,37.325951,-121.994289,
Past Sale,Single Family Residential,2440 Benton St,SANTA CLARA,CA,95051,849000,3,2,SANTA CLARA,1134,6661,1955,2,Garage,,Sold,,,,2015-09-09,899000,2016-01-04,"811,000",http://www.redfin.com/CA/Santa-Clara/2440-Benton-St-95051/home/1673029,MLSListings Inc. (MLSLI),ML81497618,Coldwell Banker,N,Y,37.3460901,-121.9695116,FALSE
Past Sale,Single Family Residential,2718 Pruneridge Ave,SANTA CLARA,CA,95051,1950000,4,5,SANTA CLARA,3243,8001,2015,2,Garage,,Sold,,,,2015-08-20,2100000,2016-01-05,"1,900,000",http://www.redfin.com/CA/Santa-Clara/2718-Pruneridge-Ave-95051/home/91496552,MLSListings Inc. (MLSLI),ML81498421,"Realty World-Kevin F. Garvey, Broker",N,Y,37.3299495,-121.9700491,FALSE
Past Sale,Single Family Residential,390 La Herran Dr,SANTA CLARA,CA,95051,895000,3,1.5,SANTA CLARA,1147,6240,1958,2,Garage,,Sold,,,,,895000,2016-01-13,"1,330,000",http://www.redfin.com/CA/Santa-Clara/390-La-Herran-Dr-95051/home/763595,MLSListings Inc. (MLSLI),ML81534493,E.L.M REALTY COMPANY,N,Y,37.3297669,-122.000309,FALSE
Past Sale,Single Family Residential,1069 Blackfield Ct,SANTA CLARA,CA,95051,749000,3,2,SANTA CLARA,1134,6021,1955,2,Garage,,Sold,,,,,749000,2016-01-05,"785,000",http://www.redfin.com/CA/Santa-Clara/1069-Blackfield-Ct-95051/home/1765615,MLSListings Inc. (MLSLI),ML81522181,Coldwell Banker,N,Y,37.3456802,-121.9690379,FALSE
Past Sale,Single Family Residential,2426 Johnson Pl,Santa Clara,CA,95050,,3,2,95050,1231,,1956,,,,,,,,,,2016-01-28,"959,000",http://www.redfin.com/CA/Santa-Clara/2426-Johnson-Pl-95050/home/1118830,,,,N,Y,37.3377331,-121.9655797,
Past Sale,Single Family Residential,524 Hickory Pl,SANTA CLARA,CA,95051,1100000,3,2,SANTA CLARA,1442,6181,1963,2,Garage,,Sold,,,,,1100000,2016-02-03,"1,280,000",http://www.redfin.com/CA/Santa-Clara/524-Hickory-Pl-95051/home/736993,MLSListings Inc. (MLSLI),ML81546077,Alain Pinel Realtors,N,Y,37.3322999,-121.987221,FALSE
Past Sale,Single Family Residential,2807 Barcells Ave,SANTA CLARA,CA,95051,888888,3,2,SANTA CLARA,1145,5187,1956,2,Garage,,Sold,,,,,888888,2016-01-22,"1,037,000",http://www.redfin.com/CA/Santa-Clara/2807-Barcells-Ave-95051/home/1076069,MLSListings Inc. (MLSLI),ML81545223,Realty World RFP Realty,N,Y,37.3369597,-121.9762482,FALSE
Past Sale,Condo/Coop,225 Kiely Blvd Unit B,SANTA CLARA,CA,95051,649000,2,2,SANTA CLARA,1012,7000,1971,0,,,Sold,,,,,649000,2016-01-29,"680,000",http://www.redfin.com/CA/Santa-Clara/225-Kiely-Blvd-95051/unit-B/home/1082943,MLSListings Inc. (MLSLI),ML81545292,Intero Real Estate Services,N,Y,37.3272229,-121.974007,FALSE
Past Sale,Condo/Coop,946 Kiely Blvd,Santa Clara,CA,95051,,2,2,95051,956,,1971,,,,,,,,,,2016-01-15,"505,000",http://www.redfin.com/CA/Santa-Clara/946-Kiely-Blvd-95051/home/1686909,,,,N,Y,37.3429519,-121.979747,
Past Sale,Condo/Coop,2930 Via Torino Pl (Unable to map),SANTA CLARA,CA,95051,982990,2,3,SANTA CLARA,1723,,2015,2,Garage,,Sold,,,,2015-10-21,989880,2015-12-23,"978,990",http://www.redfin.com/CA/Santa-Clara/2930-Via-Torino-Pl-95051/home/101620392,MLSListings Inc. (MLSLI),ML81517775,D R Horton America's Builder,N,Y,37.3412711,-121.98199,FALSE
Past Sale,Single Family Residential,3043 Homestead Rd,SANTA CLARA,CA,95051,1308000,4,3,SANTA CLARA,1461,3175,2015,2,Garage,,Sold,,,,,1308000,2015-09-11,"1,310,875",http://www.redfin.com/CA/Santa-Clara/3043-Homestead-Rd-95051/home/85252204,MLSListings Inc. (MLSLI),ML81470086,Real Estate Advantage Group,N,Y,37.337883,-121.9836106,FALSE
Past Sale,Single Family Residential,85 Jenkins Pl,SANTA CLARA,CA,95051,925000,3,2,SANTA CLARA,1240,5184,1954,2,Garage,,Sold,,,,,925000,2015-09-18,"900,000",http://www.redfin.com/CA/Santa-Clara/85-Jenkins-Pl-95051/home/1060253,MLSListings Inc. (MLSLI),ML81501800,Coldwell Banker,N,Y,37.3246614,-121.9807063,FALSE
Past Sale,Single Family Residential,3035 Homestead Rd,SANTA CLARA,CA,95051,1188000,3,2.5,SANTA CLARA,1326,3525,2015,2,Garage,,Sold,,,,,1188000,2015-12-31,"1,180,000",http://www.redfin.com/CA/Santa-Clara/3035-Homestead-Rd-95051/home/81822141,MLSListings Inc. (MLSLI),ML81533962,Real Estate Advantage Group,N,Y,37.3378852,-121.9834354,FALSE
Past Sale,Condo/Coop,972 # A Kiely Blvd,SANTA CLARA,CA,95051,595000,3,2,SANTA CLARA,1145,1260,1971,0,,,Sold,,,,,595000,2015-09-18,"643,000",http://www.redfin.com/CA/Santa-Clara/972-Kiely-Blvd-95051/home/1060987,MLSListings Inc. (MLSLI),ML81500467,Century 21 M&M and Associates,N,Y,37.343306,-121.981168,FALSE
Past Sale,Single Family Residential,3121 Atherton Dr,SANTA CLARA,CA,95051,1398000,5,4,SANTA CLARA,2068,6423,1955,2,Garage,,Sold,,,,2015-09-19,1499000,2015-10-15,"1,425,000",http://www.redfin.com/CA/Santa-Clara/3121-Atherton-Dr-95051/home/741878,MLSListings Inc. (MLSLI),ML81501791,Intero Real Estate Services,N,Y,37.329135,-121.983847,FALSE
Past Sale,Single Family Residential,662 Starr Ct,SANTA CLARA,CA,95051,1199888,3,3,SANTA CLARA,1643,6902,1955,2,Garage,,Sold,,,,,1199888,2015-10-23,"1,385,000",http://www.redfin.com/CA/Santa-Clara/662-Starr-Ct-95051/home/1343494,MLSListings Inc. (MLSLI),ML81515024,CSR Real Estate Services,N,Y,37.334919,-121.97368,FALSE
Past Sale,Single Family Residential,373 Dayton Ave,SANTA CLARA,CA,95051,1250000,3,1.5,SANTA CLARA,1056,8310,1958,2,Garage,,Sold,,,,,1250000,2015-09-25,"1,310,000",http://www.redfin.com/CA/Santa-Clara/373-Dayton-Ave-95051/home/1213051,MLSListings Inc. (MLSLI),ML81499999,Coldwell Banker,N,Y,37.329726,-121.993419,FALSE
Past Sale,Condo/Coop,1093 Alta Mira Unit A,SANTA CLARA,CA,95051,488000,2,2,SANTA CLARA,1067,,1971,0,,,Sold,,,,,488000,2015-09-24,"600,000",http://www.redfin.com/CA/Santa-Clara/1093-Alta-Mira-Dr-95051/unit-A/home/1085767,MLSListings Inc. (MLSLI),ML81516150,Intero Real Estate Services,N,Y,37.346455,-121.994183,FALSE
Past Sale,Single Family Residential,3471 Elmhurst Ave,SANTA CLARA,CA,95051,1099000,3,2,SANTA CLARA,1292,6257,1957,2,Garage,,Sold,,,,,1099000,2015-10-02,"1,175,000",http://www.redfin.com/CA/Santa-Clara/3471-Elmhurst-Ave-95051/home/567145,MLSListings Inc. (MLSLI),ML81512230,Mc Elroy Properties & Inv.,N,Y,37.32669,-121.992247,FALSE
Past Sale,Multi-Family (2-4 Unit),3782 Flora Vista Ave,SANTA CLARA,CA,95051,1425000,5,,SANTA CLARA,2532,11772,1973,3,Garage,,Sold,,,,,1425000,2015-10-06,"1,350,000",http://www.redfin.com/CA/Santa-Clara/3782-Flora-Vista-Ave-95051/home/1515167,MLSListings Inc. (MLSLI),ML81498503,Realty World Santa Clara Valley,N,Y,37.345996,-121.992935,FALSE
Past Sale,Condo/Coop,1110 Pomeroy Ave,SANTA CLARA,CA,95051,649000,4,2.5,SANTA CLARA,1476,649,1963,1,,,Sold,,,,,649000,2015-12-09,"730,000",http://www.redfin.com/CA/Santa-Clara/1110-Pomeroy-Ave-95051/home/734677,MLSListings Inc. (MLSLI),ML81520692,Keller Williams San Jose Gateway,N,Y,37.346602,-121.988115,FALSE
Past Sale,Condo/Coop,835 Bing Dr #31,SANTA CLARA,CA,95051,425000,2,2,SANTA CLARA,1008,1073,1973,1,Garage,,Sold,,,,,425000,2015-11-09,"525,000",http://www.redfin.com/CA/Santa-Clara/835-Bing-Dr-95051/unit-31/home/1249250,MLSListings Inc. (MLSLI),ML81519793,CSR Real Estate Services,N,Y,37.338935,-121.9927074,FALSE
Past Sale,Single Family Residential,909 Pepper Tree Ln,Santa Clara,CA,95051,,3,2.5,95051,1638,,2015,,,,,,,,,,2015-09-23,"1,333,500",http://www.redfin.com/CA/Santa-Clara/909-Pepper-Tree-Ln-95051/home/95957648,,,,N,Y,37.3409462,-121.9825379,
Past Sale,Condo/Coop,3035 Kaiser Dr Unit B,SANTA CLARA,CA,95051,365000,1,1,SANTA CLARA,670,816,1971,0,,,Sold,,,,,365000,2015-10-01,"390,000",http://www.redfin.com/CA/Santa-Clara/3035-Kaiser-Dr-95051/unit-B/home/1306044,MLSListings Inc. (MLSLI),ML81514934,Intero Real Estate Services,N,Y,37.343461,-121.982384,FALSE
Past Sale,Single Family Residential,3272 Catalina Ave,SANTA CLARA,CA,95051,979950,3,2,SANTA CLARA,1481,6629,1963,2,Garage,,Sold,,,,,979950,2015-09-29,"1,000,000",http://www.redfin.com/CA/Santa-Clara/3272-Catalina-Ave-95051/home/1846426,MLSListings Inc. (MLSLI),ML81500833,Intero Real Estate Services,N,Y,37.344261,-121.985669,FALSE
Past Sale,Single Family Residential,3045 Dibble Ct,SANTA CLARA,CA,95051,899000,4,2,SANTA CLARA,1127,5231,1953,1,Garage,,Sold,,,,,899000,2015-11-30,"1,111,000",http://www.redfin.com/CA/Santa-Clara/3045-Dibble-Ct-95051/home/691697,MLSListings Inc. (MLSLI),ML81519671,Alain Pinel Realtors,N,Y,37.334596,-121.983673,FALSE
Past Sale,Multi-Family (2-4 Unit),3122 Mckinley Dr,SANTA CLARA,CA,95051,1099000,4,,SANTA CLARA,2036,7135,1959,1,Garage,,Sold,,,,,1099000,2015-12-03,"1,450,000",http://www.redfin.com/CA/Santa-Clara/3122-McKinley-Dr-95051/home/1215336,MLSListings Inc. (MLSLI),ML81519781,Intero Real Estate Services- Santa Clara,N,Y,37.324123,-121.984216,FALSE
Past Sale,Townhouse,831 Pomeroy Ave #5,SANTA CLARA,CA,95051,529000,2,1.5,SANTA CLARA,954,500,1964,1,,,Sold,,,,,529000,2015-12-11,"570,000",http://www.redfin.com/CA/Santa-Clara/831-Pomeroy-Ave-95051/unit-5/home/845512,MLSListings Inc. (MLSLI),ML81521313,Intero Real Estate Services,N,Y,37.338553,-121.9871,FALSE
Past Sale,Single Family Residential,3146 Allen Way,SANTA CLARA,CA,95051,1199000,3,2,SANTA CLARA,1328,6377,1957,2,Garage,,Sold,,,,,1199000,2015-12-30,"1,366,000",http://www.redfin.com/CA/Santa-Clara/3146-Allen-Way-95051/home/741541,MLSListings Inc. (MLSLI),ML81522823,Legacy  Real Estate & Associates,N,Y,37.327978,-121.985311,FALSE
Past Sale,Townhouse,847 Quince Ave,SANTA CLARA,CA,95051,819950,3,2.5,SANTA CLARA,1827,1825,2007,2,Garage,,Sold,,,,,819950,2015-12-21,"910,000",http://www.redfin.com/CA/Santa-Clara/847-Quince-Ave-95051/home/17290691,MLSListings Inc. (MLSLI),ML81517878,Intero Real Estate Services,N,Y,37.3394134,-121.985925,FALSE
Past Sale,Condo/Coop,1400 Bowe Ave #610,SANTA CLARA,CA,95051,529000,2,2,SANTA CLARA,1062,,1984,0,,,Sold,,,,,529000,2015-09-14,"609,000",http://www.redfin.com/CA/Santa-Clara/1400-Bowe-Ave-95051/unit-610/home/610163,MLSListings Inc. (MLSLI),ML81498242,RE/MAX Gold Placerville,N,Y,37.3497134,-121.9747449,FALSE
Past Sale,Condo/Coop,1400 Bowe Ave #1609,SANTA CLARA,CA,95051,599000,2,2,SANTA CLARA,1062,1307,1986,1,Garage,,Sold,,,,,599000,2015-09-18,"650,000",http://www.redfin.com/CA/Santa-Clara/1400-Bowe-Ave-95051/unit-1609/home/1686749,MLSListings Inc. (MLSLI),ML81500198,Intero Real Estate Services,N,Y,37.3497134,-121.9747449,FALSE
Past Sale,Townhouse,809 Lippert Pl,SANTA CLARA,CA,95050,849000,3,2.5,SANTA CLARA,1410,871,2008,2,Garage,,Sold,,,,,849000,2015-09-29,"875,000",http://www.redfin.com/CA/Santa-Clara/809-Lippert-Pl-95050/home/16904651,MLSListings Inc. (MLSLI),ML81499510,Keller Williams Palo Alto,N,Y,37.3414277,-121.9680265,FALSE
Past Sale,Single Family Residential,2532 Malone Pl,SANTA CLARA,CA,95050,998000,3,2,SANTA CLARA,1340,6556,1957,2,Garage,,Sold,,,,,998000,2015-10-09,"998,000",http://www.redfin.com/CA/Santa-Clara/2532-Malone-Pl-95050/home/596520,MLSListings Inc. (MLSLI),ML81500703,DPL Real Estate,N,Y,37.33867,-121.967897,FALSE
Past Sale,Single Family Residential,2790 Glorietta Cir,SANTA CLARA,CA,95051,1588888,4,3,SANTA CLARA,2160,8298,1970,2,Garage,,Sold,,,,,1588888,2015-10-07,"1,675,000",http://www.redfin.com/CA/Santa-Clara/2790-Glorietta-Cir-95051/home/741804,MLSListings Inc. (MLSLI),ML81500293,"Realty World-Kevin F. Garvey, Broker",N,Y,37.329067,-121.974003,FALSE
Past Sale,Single Family Residential,2516 Rose Way,SANTA CLARA,CA,95051,899000,3,2,SANTA CLARA,1934,5714,1955,2,Garage,,Sold,,,,,899000,2015-10-30,"1,075,000",http://www.redfin.com/CA/Santa-Clara/2516-Rose-Way-95051/home/1215177,MLSListings Inc. (MLSLI),ML81518810,KW Bay Area Estates,N,Y,37.344327,-121.970937,FALSE
Past Sale,Multi-Family (2-4 Unit),1097 WHITE Dr,SANTA CLARA,CA,95051,900000,4,,SANTA CLARA,1900,6970,1960,2,Garage,,Sold,,,,,900000,2015-11-06,"915,000",http://www.redfin.com/CA/Santa-Clara/1097-White-Dr-95051/home/1621219,MLSListings Inc. (MLSLI),ML81471048,Amarante Properties,N,Y,37.34596,-121.972404,FALSE
Past Sale,Single Family Residential,1353 Las Palmas Dr,SANTA CLARA,CA,95051,985000,4,2,SANTA CLARA,1566,6247,1952,1,Garage,,Sold,,,,,985000,2015-11-10,"1,190,000",http://www.redfin.com/CA/Santa-Clara/1353-Las-Palmas-Dr-95051/home/735114,MLSListings Inc. (MLSLI),ML81516543,Coldwell Banker,N,Y,37.349822,-121.969866,FALSE
Past Sale,Condo/Coop,1400 Bowe Ave #601,SANTA CLARA,CA,95051,599000,2,2,SANTA CLARA,1062,,1984,1,Garage,,Sold,,,,,599000,2015-11-24,"655,000",http://www.redfin.com/CA/Santa-Clara/1400-Bowe-Ave-95051/unit-601/home/735300,MLSListings Inc. (MLSLI),ML81518205,Alain Pinel Realtors,N,Y,37.3497134,-121.9747449,FALSE
Past Sale,Single Family Residential,2562 Scanlan Pl,SANTA CLARA,CA,95050,935000,3,2,SANTA CLARA,1340,6534,1957,2,Garage,,Sold,,,,,935000,2015-11-17,"990,000",http://www.redfin.com/CA/Santa-Clara/2562-Scanlan-Pl-95050/home/824190,MLSListings Inc. (MLSLI),ML81517003,Intero Real Estate Services,N,Y,37.337855,-121.968135,FALSE
Past Sale,Condo/Coop,1400 Bowe Ave #307,SANTA CLARA,CA,95051,625000,2,2,SANTA CLARA,1062,,1984,1,Garage,,Sold,,,,,625000,2015-11-19,"650,000",http://www.redfin.com/CA/Santa-Clara/1400-Bowe-Ave-95051/unit-307/home/740932,MLSListings Inc. (MLSLI),ML81517423,Intero Real Estate Services,N,Y,37.3497134,-121.9747449,FALSE
Past Sale,Single Family Residential,769 Caldwell Pl,SANTA CLARA,CA,95051,879000,3,2.5,SANTA CLARA,1465,2186,1988,2,Garage,,Sold,,,,,879000,2015-11-24,"877,000",http://www.redfin.com/CA/Santa-Clara/769-Caldwell-Pl-95051/home/1621683,MLSListings Inc. (MLSLI),ML81516509,Century 21 M&M and Associates,N,Y,37.339676,-121.9705611,FALSE
Past Sale,Single Family Residential,727 Layton Ct,SANTA CLARA,CA,95051,948000,5,3,SANTA CLARA,1734,5841,1954,1,Garage,,Sold,,,,,948000,2015-11-25,"1,060,000",http://www.redfin.com/CA/Santa-Clara/727-Layton-Ct-95051/home/1263006,MLSListings Inc. (MLSLI),ML81518510,RE/MAX Properties West,N,Y,37.337795,-121.971101,FALSE
Past Sale,Condo/Coop,151 Buckingham Dr #226,SANTA CLARA,CA,95051,378000,1,1,SANTA CLARA,599,780,1969,1,Garage,,Sold,,,,,378000,2015-11-30,"386,000",http://www.redfin.com/CA/Santa-Clara/151-Buckingham-Dr-95051/unit-226/home/743713,MLSListings Inc. (MLSLI),ML81513086,Giant Realty Inc.,N,Y,37.326622,-121.971376,FALSE
Past Sale,Condo/Coop,151 Buckingham Dr #233,SANTA CLARA,CA,95051,530000,2,2,SANTA CLARA,1028,1118,1969,0,,,Sold,,,,,530000,2015-11-28,"525,000",http://www.redfin.com/CA/Santa-Clara/151-Buckingham-Dr-95051/unit-233/home/691836,MLSListings Inc. (MLSLI),ML81519089,Midtown Realty,N,Y,37.326622,-121.971376,FALSE
Past Sale,Condo/Coop,1400 Bowe Ave #1709,SANTA CLARA,CA,95051,625000,2,2,SANTA CLARA,1062,1307,1986,0,,,Sold,,,,,625000,2015-12-04,"665,000",http://www.redfin.com/CA/Santa-Clara/1400-Bowe-Ave-95051/unit-1709/home/1765648,MLSListings Inc. (MLSLI),ML81520985,Intero Real Estate Services,N,Y,37.3497134,-121.9747449,FALSE
Past Sale,Condo/Coop,1400 Bowe Ave #1303,SANTA CLARA,CA,95051,579000,2,2,SANTA CLARA,1062,1307,1986,0,,,Sold,,,,,579000,2015-12-10,"640,000",http://www.redfin.com/CA/Santa-Clara/1400-Bowe-Ave-95051/unit-1303/home/1181982,MLSListings Inc. (MLSLI),ML81518592,RE/MAX Gold Placerville,N,Y,37.3497134,-121.9747449,FALSE
Past Sale,Single Family Residential,1005 Las Palmas Dr,SANTA CLARA,CA,95051,799900,3,2,SANTA CLARA,1166,6098,1955,2,Garage,,Sold,,,,2015-10-22,850000,2015-12-22,"799,900",http://www.redfin.com/CA/Santa-Clara/1005-Las-Palmas-Dr-95051/home/1464485,MLSListings Inc. (MLSLI),ML81518655,Intero Real Estate Services,N,Y,37.344042,-121.970184,FALSE
Past Sale,Single Family Residential,2351 Susan Dr,SANTA CLARA,CA,95050,899000,3,2,SANTA CLARA,1378,6935,1955,2,Garage,,Sold,,,,,899000,2015-09-18,"1,060,000",http://www.redfin.com/CA/Santa-Clara/2351-Susan-Dr-95050/home/732267,MLSListings Inc. (MLSLI),ML81500495,Alain Pinel Realtors,N,Y,37.348698,-121.966367,FALSE
Past Sale,Townhouse,2462 Golf Links Cir,SANTA CLARA,CA,95050,988000,3,2.5,SANTA CLARA,1940,2397,1979,2,Garage,,Sold,,,,,988000,2015-09-30,"995,000",http://www.redfin.com/CA/Santa-Clara/2462-Golf-Links-Cir-95050/home/1190568,MLSListings Inc. (MLSLI),ML81500504,Coldwell Banker,N,Y,37.332545,-121.965684,FALSE
Past Sale,Townhouse,2488 Golf Links Cir,SANTA CLARA,CA,95050,965000,2,2,SANTA CLARA,1718,3248,1979,2,Garage,,Sold,,,,,965000,2015-10-16,"970,000",http://www.redfin.com/CA/Santa-Clara/2488-Golf-Links-Cir-95050/home/1566143,MLSListings Inc. (MLSLI),ML81513634,RE/MAX Real Estate Services,N,Y,37.332053,-121.965683,FALSE
Past Sale,Townhouse,2448 Golf Links Cir,SANTA CLARA,CA,95050,958000,3,2,SANTA CLARA,2088,3296,1979,2,Garage,,Sold,,,,,958000,2015-12-02,"980,000",http://www.redfin.com/CA/Santa-Clara/2448-Golf-Links-Cir-95050/home/1226226,MLSListings Inc. (MLSLI),ML81516296,Coldwell Banker,N,Y,37.332826,-121.965179,FALSE
Past Sale,Condo/Coop,2380 Homestead Rd #3201,SANTA CLARA,CA,95050,498000,1,1,SANTA CLARA,820,820,2007,1,Garage,,Sold,,,,,498000,2015-12-03,"500,000",http://www.redfin.com/CA/Santa-Clara/2380-Homestead-Rd-95050/unit-3201/home/12180365,MLSListings Inc. (MLSLI),ML81519680,Alain Pinel Realtors,N,Y,37.341382,-121.966099,FALSE
Past Sale,Townhouse,2426 Golf Links Cir,SANTA CLARA,CA,95050,975000,3,2.5,SANTA CLARA,2088,2311,1979,4,Garage,,Sold,,,,,975000,2015-12-03,"975,000",http://www.redfin.com/CA/Santa-Clara/2426-Golf-Links-Cir-95050/home/1566050,MLSListings Inc. (MLSLI),ML81519675,Alain Pinel Realtors,N,Y,37.332606,-121.964198,FALSE
Past Sale,Single Family Residential,758 Clara Vista Ave,Santa Clara,CA,95050,,3,1,95050,1061,,1954,,,,,,,,,,2015-12-21,"609,000",http://www.redfin.com/CA/Santa-Clara/758-Clara-Vista-Ave-95050/home/846555,,,,N,Y,37.340796,-121.9645607,
Past Sale,Townhouse,2455 Golf Links Cir,SANTA CLARA,CA,95050,939000,3,2.5,SANTA CLARA,2088,3245,1979,2,Garage,,Sold,,,,2015-11-13,950000,2015-12-18,"934,000",http://www.redfin.com/CA/Santa-Clara/2455-Golf-Links-Cir-95050/home/732234,MLSListings Inc. (MLSLI),ML81517994,Coldwell Banker,N,Y,37.333115,-121.96566,FALSE
Past Sale,Single Family Residential,2397 Donner Pl,SANTA CLARA,CA,95050,888000,4,2,SANTA CLARA,1350,12290,1955,2,Garage,,Sold,,,,,888000,2015-12-30,"1,088,000",http://www.redfin.com/CA/Santa-Clara/2397-Donner-Pl-95050/home/1791746,MLSListings Inc. (MLSLI),ML81522445,"Realty World-Kevin F. Garvey, Broker",N,Y,37.328468,-121.964368,FALSE
Past Sale,Single Family Residential,171 Woodhams Rd,SANTA CLARA,CA,95051,1250000,3,2,SANTA CLARA,1240,5995,1954,2,Garage,,Sold,,,,,1250000,2015-09-22,"1,320,000",http://www.redfin.com/CA/Santa-Clara/171-Woodhams-Rd-95051/home/742781,MLSListings Inc. (MLSLI),ML81498454,Coldwell Banker,N,Y,37.3262451,-121.9817149,FALSE
Past Sale,Single Family Residential,2890 Stevenson St,SANTA CLARA,CA,95051,1198000,4,2,SANTA CLARA,1651,6517,1960,2,Garage,,Sold,,,,,1198000,2015-10-09,"1,265,000",http://www.redfin.com/CA/Santa-Clara/2890-Stevenson-St-95051/home/738334,MLSListings Inc. (MLSLI),ML81512783,Alain Pinel Realtors,N,Y,37.334801,-121.979604,FALSE
Past Sale,Single Family Residential,3022 Via Siena Pl (Unable to map),Santa Clara,CA,95051,,3,2.5,95051,1638,,2015,,,,,,,,,,2015-09-24,"1,338,500",http://www.redfin.com/CA/Santa-Clara/3022-Via-Siena-Pl-95051/home/95957647,,,,N,Y,37.340796,-121.9820244,
Past Sale,Townhouse,960 Kiely Blvd Unit C,SANTA CLARA,CA,95051,600000,3,2.5,SANTA CLARA,1420,704,1971,0,,,Sold,,,,,600000,2015-10-23,"691,000",http://www.redfin.com/CA/Santa-Clara/960-Kiely-Blvd-95051/unit-C/home/816383,MLSListings Inc. (MLSLI),ML81515404,Legacy Real Estate & Assoc.,N,Y,37.3423,-121.980662,FALSE
Past Sale,Townhouse,827 Creekside Pl,SANTA CLARA,CA,95051,699888,3,2.5,SANTA CLARA,1235,1980,1993,2,Garage,,Sold,,,,,699888,2015-10-27,"801,000",http://www.redfin.com/CA/Santa-Clara/827-Creekside-Pl-95051/home/1416502,MLSListings Inc. (MLSLI),ML81515700,Coldwell Banker,N,Y,37.339023,-121.979066,FALSE
Past Sale,Single Family Residential,717 Woodhams Rd,Santa Clara,CA,95051,,3,2,95051,1479,,1961,,,,,,,,,,2015-11-04,"1,050,000",http://www.redfin.com/CA/Santa-Clara/717-Woodhams-Rd-95051/home/1753785,,,,N,Y,37.335771,-121.979434,
Past Sale,Single Family Residential,3072 Harding Ave,SANTA CLARA,CA,95051,1225000,3,2,SANTA CLARA,1240,5648,1954,2,Garage,,Sold,,,,,1225000,2015-11-16,"1,185,000",http://www.redfin.com/CA/Santa-Clara/3072-Harding-Ave-95051/home/1119722,MLSListings Inc. (MLSLI),ML81517921,Coldwell Banker,N,Y,37.324836,-121.982314,FALSE
Past Sale,Single Family Residential,709 Hamilton Ln,SANTA CLARA,CA,95051,949500,3,2,SANTA CLARA,1108,5292,1954,2,Garage,,Sold,,,,,949500,2015-12-08,"1,070,000",http://www.redfin.com/CA/Santa-Clara/709-Hamilton-Ln-95051/home/1695426,MLSListings Inc. (MLSLI),ML81520640,Intero Real Estate Services,N,Y,37.33545,-121.980447,FALSE
Past Sale,Condo/Coop,984 Kiely Blvd Unit D,SANTA CLARA,CA,95051,448888,2,1,SANTA CLARA,882,,1971,0,,,Sold,,,,,448888,2015-12-04,"466,000",http://www.redfin.com/CA/Santa-Clara/984-Kiely-Blvd-95051/unit-D/home/1119171,MLSListings Inc. (MLSLI),ML81517891,Realty World RFP Realty,N,Y,37.343639,-121.978637,FALSE
Past Sale,Single Family Residential,2911 Humbolt Ave,SANTA CLARA,CA,95051,829000,2,1,SANTA CLARA,842,9250,1951,2,Garage,,Sold,,,,,829000,2015-12-27,"875,000",http://www.redfin.com/CA/Santa-Clara/2911-Humbolt-Ave-95051/home/1515060,MLSListings Inc. (MLSLI),ML81545546,Sereno Group,N,Y,37.347661,-121.97922,FALSE
Past Sale,Single Family Residential,390 Drake Ct,SANTA CLARA,CA,95051,1250000,3,2,SANTA CLARA,1104,7114,1955,1,Garage,,Sold,,,,,1250000,2015-12-15,"1,200,000",http://www.redfin.com/CA/Santa-Clara/390-Drake-Ct-95051/home/1061075,MLSListings Inc. (MLSLI),ML81516324,Keller Williams Realty-Silicon Valley,N,Y,37.329893,-121.98208,FALSE
Past Sale,Condo/Coop,964 Kiely Blvd Unit A,SANTA CLARA,CA,95051,469000,2,1.5,SANTA CLARA,992,484,1971,2,,,Sold,,,,,469000,2015-12-30,"510,000",http://www.redfin.com/CA/Santa-Clara/964-Kiely-Blvd-95051/unit-A/home/1695496,MLSListings Inc. (MLSLI),ML81522380,Keller Williams Realty-Silicon Valley,N,Y,37.342515,-121.981216,FALSE
Past Sale,Single Family Residential,645 Giannini Dr,SANTA CLARA,CA,95051,1088000,4,2,SANTA CLARA,1350,6098,1956,2,Garage,,Sold,,,,,1088000,2015-09-25,"1,320,000",http://www.redfin.com/CA/Santa-Clara/645-Giannini-Dr-95051/home/624595,MLSListings Inc. (MLSLI),ML81501384,"Realty World-Kevin F. Garvey, Broker",N,Y,37.332809,-122.000281,FALSE
Past Sale,Single Family Residential,970 Wood Duck Ave,SANTA CLARA,CA,95051,1398000,3,3,SANTA CLARA,1778,7203,1961,4,Garage,,Sold,,,,,1398000,2015-10-30,"1,400,000",http://www.redfin.com/CA/Santa-Clara/970-Wood-Duck-Ave-95051/home/1578694,MLSListings Inc. (MLSLI),ML81516920,Keller Williams Realty - Cupertino,N,Y,37.343503,-121.998887,FALSE
Past Sale,Townhouse,3709 Europe Ct,Santa Clara,CA,95051,,2,2,95051,1524,,1978,,,,,,,,,,2015-11-05,"905,000",http://www.redfin.com/CA/Santa-Clara/3709-Europe-Ct-95051/home/764563,,,,N,Y,37.349339,-121.997988,
Past Sale,Single Family Residential,3887 Shasta Dr,SANTA CLARA,CA,95051,1206400,3,2,SANTA CLARA,1508,6393,1959,6,Garage,,Sold,,,,,1206400,2015-11-05,"1,255,000",http://www.redfin.com/CA/Santa-Clara/3887-Shasta-Dr-95051/home/762466,MLSListings Inc. (MLSLI),ML81515808,Realty One Group Allure,N,Y,37.333233,-122.003791,FALSE
Past Sale,Single Family Residential,967 Wood Duck Ave,SANTA CLARA,CA,95051,1249950,4,2.5,SANTA CLARA,1897,9728,1961,2,Garage,,Sold,,,,,1249950,2015-11-18,"1,500,000",http://www.redfin.com/CA/Santa-Clara/967-Wood-Duck-Ave-95051/home/1415030,MLSListings Inc. (MLSLI),ML81517830,Realty World CGH & Associates,N,Y,37.34354,-121.998241,FALSE
Past Sale,Multi-Family (2-4 Unit),3480-3482 Brookdale Dr,SANTA CLARA,CA,95051,849000,4,,SANTA CLARA,1740,7102,1959,2,Garage,,Sold,,,,,849000,2015-12-01,"1,062,000",http://www.redfin.com/CA/Santa-Clara/3482-Brookdale-Dr-95051/home/64093835,MLSListings Inc. (MLSLI),ML81519374,Realty World-BPV,N,Y,37.341942,-121.9925919,FALSE
Past Sale,Multi-Family (2-4 Unit),924-926 Quince Ave,SANTA CLARA,CA,95051,875000,4,,SANTA CLARA,1762,7319,1960,1,Garage,,Sold,,,,,875000,2015-09-25,"1,025,000",http://www.redfin.com/CA/Santa-Clara/926-Quince-AVE-95051/home/95470281,MLSListings Inc. (MLSLI),ML81501610,Coldwell Banker,N,Y,37.341861,-121.9863878,FALSE
Past Sale,Multi-Family (2-4 Unit),2891-2893 Humbolt Ave,SANTA CLARA,CA,95051,1099000,4,,SANTA CLARA,1662,9686,1951,4,Garage,,Sold,,,,,1099000,2015-10-02,"1,200,000",http://www.redfin.com/CA/Santa-Clara/2893-Humbolt-AVE-95051/home/92337996,MLSListings Inc. (MLSLI),ML81499115,Advanced RES,N,Y,37.3474858,-121.9790096,FALSE
Past Sale,Single Family Residential,2768 Taft Ave,SANTA CLARA,CA,95051,1299000,4,2.5,SANTA CLARA,1810,7020,1960,2,Garage,,Sold,,,,,1299000,2015-10-07,"1,400,000",http://www.redfin.com/CA/Santa-Clara/2768-Taft-Ave-95051/home/567123,MLSListings Inc. (MLSLI),ML81501807,Sereno Group,N,Y,37.331973,-121.973022,FALSE
Past Sale,Condo/Coop,972 Kiely Blvd Unit A,Santa Clara,CA,95051,,3,2,95051,1145,,1971,,,,,,,,,,2015-09-18,"643,000",http://www.redfin.com/CA/Santa-Clara/972-Kiely-Blvd-95051/unit-A/home/1686876,,,,N,Y,37.343306,-121.981168,
Past Sale,Condo/Coop,120 Saratoga Ave Apt 76,Santa Clara,CA,95051,,2,2,95051,950,,1969,,,,,,,,,,2015-12-23,"200,000",http://www.redfin.com/CA/Santa-Clara/120-Saratoga-Ave-95051/unit-76/home/1579905,,,,N,Y,37.325897,-121.969695,
Past Sale,Condo/Coop,936 Kiely Blvd Unit I,Santa Clara,CA,95051,,2,1,95051,882,,1971,,,,,,,,,,2015-10-30,"370,000",http://www.redfin.com/CA/Santa-Clara/936-Kiely-Blvd-95051/unit-I/home/1118875,,,,N,Y,37.3429379,-121.978679,
Past Sale,Single Family Residential,2724 Pruneridge Ave,SANTA CLARA,CA,95051,2175000,5,5,SANTA CLARA,3454,8616,2015,2,Garage,,Sold,,,,2015-08-20,2175000,2015-10-29,"2,061,400",http://www.redfin.com/CA/Santa-Clara/2724-Pruneridge-Ave-95051/home/88619852,MLSListings Inc. (MLSLI),ML81485056,"Realty World-Kevin F. Garvey, Broker",N,Y,37.3298588,-121.9725875,FALSE
Past Sale,Condo/Coop,121 Buckingham Dr #25,SANTA CLARA,CA,95051,525000,2,2,SANTA CLARA,1137,1260,1969,1,,,Sold,,,,,525000,2015-09-15,"550,000",http://www.redfin.com/CA/Santa-Clara/121-Buckingham-Dr-95051/unit-25/home/725950,MLSListings Inc. (MLSLI),ML81497037,Keller Williams San Jose Gateway,N,Y,37.325941,-121.9708105,FALSE
Past Sale,Single Family Residential,2810 Sykes Ct,SANTA CLARA,CA,95051,988000,3,2,SANTA CLARA,1254,6882,1955,2,Garage,,Sold,,,,,988000,2015-09-24,"1,150,000",http://www.redfin.com/CA/Santa-Clara/2810-Sykes-Ct-95051/home/1613084,MLSListings Inc. (MLSLI),ML81512152,Intero Real Estate Services,N,Y,37.3331389,-121.9745266,FALSE
Past Sale,Single Family Residential,171 Serena Way,Santa Clara,CA,95051,,3,2,95051,2154,,1951,,,,,,,,,,2015-12-30,"365,500",http://www.redfin.com/CA/Santa-Clara/171-Serena-Way-95051/home/1012186,,,,N,Y,37.325407,-121.9737688,
Past Sale,Single Family Residential,3077 Mauricia Ave,SANTA CLARA,CA,95051,1395000,4,3,SANTA CLARA,1761,5581,1954,2,Garage,,Sold,,,,2015-08-26,1488888,2015-09-29,"1,520,000",http://www.redfin.com/CA/Santa-Clara/3077-Mauricia-Ave-95051/home/1226232,MLSListings Inc. (MLSLI),ML81499125,"Realty World-Kevin F. Garvey, Broker",N,Y,37.327319,-121.9821886,FALSE
Past Sale,Single Family Residential,752 Clara Vista Ave,SANTA CLARA,CA,95050,725000,3,1.5,SANTA CLARA,1085,5837,1954,0,,,Sold,,,,,725000,2015-10-16,"755,000",http://www.redfin.com/CA/Santa-Clara/752-Clara-Vista-Ave-95050/home/738527,MLSListings Inc. (MLSLI),ML81516436,Coldwell Banker,N,Y,37.3406423,-121.9646004,FALSE
Past Sale,Single Family Residential,2483 Forbes Ave,SANTA CLARA,CA,95050,849950,3,2,SANTA CLARA,1340,5898,1957,2,Garage,,Sold,,,,2015-09-03,849888,2015-10-19,"850,000",http://www.redfin.com/CA/Santa-Clara/2483-Forbes-Ave-95050/home/1257554,MLSListings Inc. (MLSLI),ML81500740,Fireside Realty,N,Y,37.3358741,-121.9659623,FALSE
Past Sale,Condo/Coop,2580 Homestead Rd #4103,SANTA CLARA,CA,95051,559000,2,1.5,SANTA CLARA,984,984,2007,0,,,Sold,,,,,559000,2015-10-23,"635,000",http://www.redfin.com/CA/Santa-Clara/2580-Homestead-Rd-95051/unit-4103/home/22734348,MLSListings Inc. (MLSLI),ML81515824,Coldwell Banker,N,Y,37.3397753,-121.9715281,FALSE
Past Sale,Condo/Coop,2580 Homestead Rd #4202,SANTA CLARA,CA,95051,538888,2,1.5,SANTA CLARA,984,984,2007,0,,,Sold,,,,,538888,2015-11-02,"606,000",http://www.redfin.com/CA/Santa-Clara/2580-Homestead-Rd-95051/unit-4202/home/22704974,MLSListings Inc. (MLSLI),ML81514721,Coldwell Banker,N,Y,37.3397753,-121.9715281,FALSE
Past Sale,Single Family Residential,2803 Kalliam Dr,SANTA CLARA,CA,95051,1488000,4,2.5,SANTA CLARA,1978,9305,1975,2,Garage,,Sold,,,,,1488000,2015-11-24,"1,495,000",http://www.redfin.com/CA/Santa-Clara/2803-Kalliam-Dr-95051/home/581505,MLSListings Inc. (MLSLI),ML81514814,Keller Williams Realty - Cupertino,N,Y,37.3286492,-121.9751269,FALSE
Past Sale,Multi-Family (2-4 Unit),941 Live Oak Dr,Santa Clara,CA,95051,,,,95051,1762,,1960,,,,,,,,,,2015-11-19,"247,500",http://www.redfin.com/CA/Santa-Clara/941-Live-Oak-Dr-95051/home/1738758,,,,N,Y,37.3424133,-121.9845114,
Past Sale,Condo/Coop,121 Buckingham Dr #32,SANTA CLARA,CA,95051,519000,2,2,SANTA CLARA,950,871,1969,0,,,Sold,,,,2015-09-23,529000,2015-11-30,"515,000",http://www.redfin.com/CA/Santa-Clara/121-Buckingham-Dr-95051/unit-32/home/743639,MLSListings Inc. (MLSLI),ML81513403,Intero Almaden,N,Y,37.325941,-121.9708105,FALSE
Past Sale,Single Family Residential,635 Nicholson Ave,SANTA CLARA,CA,95051,950000,3,2,SANTA CLARA,1743,5514,1955,2,Garage,,Sold,,,,,950000,2015-10-30,"960,000",http://www.redfin.com/CA/SANTA-CLARA/635-NICHOLSON-AVE-95051/home/1837219,MLSListings Inc. (MLSLI),ML81514273,Intero Real Estate Services,N,Y,37.33457,-121.972021,FALSE
Past Sale,Single Family Residential,2891 Humbolt Ave,Santa Clara,CA,95051,,4,2,95051,1662,,1951,,,,,,,,,,2015-10-02,"1,200,000",http://www.redfin.com/CA/Santa-Clara/2891-Humbolt-Ave-95051/home/1335486,,,,N,Y,37.34766,-121.978963,
Past Sale,Single Family Residential,2681 Benton St,Santa Clara,CA,95051,,3,1,95051,900,,1955,,,,,,,,,,2015-09-30,"620,000",http://www.redfin.com/CA/Santa-Clara/2681-Benton-St-95051/home/1724963,,,,N,Y,37.346423,-121.975521,
Past Sale,Multi-Family (2-4 Unit),2356 Patricia Dr,SANTA CLARA,CA,95050,999000,4,,SANTA CLARA,1728,6522,1954,4,Garage,,Sold,,,,,999000,2015-12-16,"1,125,500",http://www.redfin.com/CA/Santa-Clara/2356-Patricia-Dr-95050/home/1060720,MLSListings Inc. (MLSLI),ML81521331,Out of Area Office,N,Y,37.3436809,-121.96656,FALSE
Past Sale,Single Family Residential,2586 Dixon Dr,Santa Clara,CA,95051,,3,2,95051,1166,,1955,,,,,,,,,,2015-11-12,"750,000",http://www.redfin.com/CA/Santa-Clara/2586-Dixon-Dr-95051/home/1814295,,,,N,Y,37.3408095,-121.9718488,
Past Sale,Condo/Coop,2729 Mauricia Ave Unit B,SANTA CLARA,CA,95051,630000,2,2,SANTA CLARA,1012,,1971,0,,,Sold,,,,,630000,2015-10-22,"665,000",http://www.redfin.com/CA/Santa-Clara/2729-Mauricia-Ave-95051/unit-B/home/1630848,MLSListings Inc. (MLSLI),ML81496799,Bertao Real Estate Group,N,Y,37.3269949,-121.972048,FALSE
Past Sale,Condo/Coop,970 Kiely Blvd Unit B,SANTA CLARA,CA,95051,599950,3,2,SANTA CLARA,1145,1260,1971,0,,,Sold,,,,2015-11-11,649950,2015-12-09,"595,000",http://www.redfin.com/CA/Santa-Clara/970-Kiely-Blvd-95051/unit-B/home/1190326,MLSListings Inc. (MLSLI),ML81517203,Home and Investment,N,Y,37.343147,-121.981424,FALSE
Past Sale,Single Family Residential,3064 Atherton Dr,SANTA CLARA,CA,95051,1249000,3,3,SANTA CLARA,1691,5486,1955,0,,,Sold,,,,,1249000,2015-11-23,"1,330,000",http://www.redfin.com/CA/Santa-Clara/3064-Atherton-Dr-95051/home/1414419,MLSListings Inc. (MLSLI),ML81513065,Haylen Group,N,Y,37.3282511,-121.9816465,FALSE
Past Sale,Condo/Coop,150 Saratoga Ave Unit 365,Santa Clara,CA,95051,,2,2,95051,1028,,1969,,,,,,,,,,2015-09-11,"145,500",http://www.redfin.com/CA/Santa-Clara/150-Saratoga-Ave-95051/unit-365/home/744464,,,,N,Y,37.3264809,-121.9675893,
Past Sale,Single Family Residential,2782 Glorietta Cir,Santa Clara,CA,95051,,4,2,95051,2160,,1970,,,,,,,,,,2015-09-30,"1,541,000",http://www.redfin.com/CA/Santa-Clara/2782-Glorietta-Cir-95051/home/741807,,,,N,Y,37.3289113,-121.9730212,
Past Sale,Single Family Residential,985 Las Palmas Dr,SANTA CLARA,CA,95051,780000,3,2,SANTA CLARA,1166,5227,1955,2,Garage,,Sold,,,,2015-09-22,799888,2015-10-09,"767,888",http://www.redfin.com/CA/Santa-Clara/985-Las-Palmas-Dr-95051/home/899410,MLSListings Inc. (MLSLI),ML81500717,Intero Real Estate Services,N,Y,37.343504,-121.9704413,FALSE
Past Sale,Townhouse,2467 Rebecca Lynn Way,Santa Clara,CA,95050,,3,2,95050,1577,,1984,,,,,,,,,,2015-11-03,"200,000",http://www.redfin.com/CA/Santa-Clara/2467-Rebecca-Lynn-Way-95050/home/1534220,,,,N,Y,37.3343515,-121.9663462,
Past Sale,Single Family Residential,2613 Gamblin Dr,Santa Clara,CA,95051,,3,2,95051,1764,,1976,,,,,,,,,,2015-12-24,"250,000",http://www.redfin.com/CA/Santa-Clara/2613-Gamblin-Dr-95051/home/1232794,,,,N,Y,37.329665,-121.968813,
Past Sale,Condo/Coop,2580 Homestead Rd #5201,SANTA CLARA,CA,95051,538800,2,1.5,SANTA CLARA,984,984,2007,1,,,Sold,,,,,538800,2015-09-23,"605,000",http://www.redfin.com/CA/Santa-Clara/2580-Homestead-Rd-95051/unit-5201/home/12180376,MLSListings Inc. (MLSLI),ML81501937,Coldwell Banker,N,Y,37.3397753,-121.9715281,FALSE
Past Sale,Single Family Residential,245 Rodonovan Ct,SANTA CLARA,CA,95051,1378888,3,2,SANTA CLARA,1650,8100,1954,1,Garage,,Sold,,,,,1378888,2015-11-04,"1,400,000",http://www.redfin.com/CA/Santa-Clara/245-Rodonovan-Ct-95051/home/1578153,MLSListings Inc. (MLSLI),ML81516392,Sereno Group,N,Y,37.328293,-121.989587,FALSE
Past Sale,Single Family Residential,670 Meadow Ave,Santa Clara,CA,95051,,3,2,95051,1508,,1959,,,,,,,,,,2015-10-16,"1,400,000",http://www.redfin.com/CA/Santa-Clara/670-Meadow-Ave-95051/home/1430599,,,,N,Y,37.333779,-122.0045046,
Past Sale,Single Family Residential,918 Perreira Dr,SANTA CLARA,CA,95051,975000,3,2,SANTA CLARA,1535,6014,1964,2,Garage,,Sold,,,,2015-09-11,1175000,2015-10-16,"1,099,998",http://www.redfin.com/CA/Santa-Clara/918-Perreira-Dr-95051/home/734543,MLSListings Inc. (MLSLI),ML81498045,Realty World Dominion,N,Y,37.3422618,-121.9888692,FALSE
Past Sale,Single Family Residential,3390 Princeton Way,SANTA CLARA,CA,95051,1198000,3,2,SANTA CLARA,1442,7543,1961,2,Garage,,Sold,,,,,1198000,2015-09-18,"1,338,000",http://www.redfin.com/CA/Santa-Clara/3390-Princeton-Way-95051/home/736663,MLSListings Inc. (MLSLI),ML81500677,Single Tree Realty,N,Y,37.337109,-121.9904626,FALSE
Past Sale,Townhouse,815 Bond Pl,SANTA CLARA,CA,95051,892000,3,2.5,SANTA CLARA,1791,2530,1992,2,Garage,,Sold,,,,,892000,2015-10-27,"920,000",http://www.redfin.com/CA/Santa-Clara/815-Bond-Pl-95051/home/754454,MLSListings Inc. (MLSLI),ML81513692,The Abigail Company,N,Y,37.338318,-121.9897716,FALSE
Past Sale,Single Family Residential,3562 Geneva Dr,Santa Clara,CA,95051,,3,2,95051,1420,,1957,,,,,,,,,,2015-10-06,"460,000",http://www.redfin.com/CA/Santa-Clara/3562-Geneva-Dr-95051/home/1450108,,,,N,Y,37.328646,-121.994369,
Past Sale,Single Family Residential,979 Capitola Way,SANTA CLARA,CA,95051,1050000,3,2,SANTA CLARA,1535,6291,1964,2,Garage,,Sold,,,,,1050000,2015-10-15,"1,127,000",http://www.redfin.com/CA/Santa-Clara/979-Capitola-Way-95051/home/1724834,MLSListings Inc. (MLSLI),ML81515066,Coldwell Banker,N,Y,37.3435879,-121.989438,FALSE
Past Sale,Single Family Residential,39 Michael Way,SANTA CLARA,CA,95051,1198000,3,2,SANTA CLARA,1274,6655,1955,2,Garage,,Sold,,,,,1198000,2015-10-16,"1,336,000",http://www.redfin.com/CA/Santa-Clara/39-Michael-Way-95051/home/885556,MLSListings Inc. (MLSLI),ML81501881,Stevensen & Neal Realtors,N,Y,37.3243889,-121.989321,FALSE
Past Sale,Single Family Residential,3667 Magellan Ave,Santa Clara,CA,95051,,3,2,95051,1284,,1957,,,,,,,,,,2015-11-09,"131,000",http://www.redfin.com/CA/Santa-Clara/3667-Magellan-Ave-95051/home/1515856,,,,N,Y,37.3281319,-121.997412,
Past Sale,Single Family Residential,952 Wood Duck Ave,SANTA CLARA,CA,95051,1788000,5,3,SANTA CLARA,2630,4581,1995,2,Garage,,Sold,,,,,1788000,2015-10-15,"1,750,000",http://www.redfin.com/CA/Santa-Clara/952-Wood-Duck-Ave-95051/home/1164472,MLSListings Inc. (MLSLI),ML81515737,Alain Pinel Realtors,N,Y,37.3428688,-121.9990372,FALSE
Past Sale,Single Family Residential,3530 Eden Dr,SANTA CLARA,CA,95051,1288000,5,3,SANTA CLARA,2162,7397,1961,2,Garage,,Sold,,,,,1288000,2015-11-23,"1,255,000",http://www.redfin.com/CA/Santa-Clara/3530-Eden-Dr-95051/home/1791280,MLSListings Inc. (MLSLI),ML81514072,Coldwell Banker,N,Y,37.3326799,-121.9941405,FALSE
Past Sale,Single Family Residential,783 Cornell Dr,SANTA CLARA,CA,95051,1049000,4,2,SANTA CLARA,2030,7110,1962,0,,,Sold,,,,,1049000,2015-09-04,"1,176,000",http://www.redfin.com/CA/Santa-Clara/783-Cornell-Dr-95051/home/737334,MLSListings Inc. (MLSLI),ML81496950,Keller Williams Palo Alto,N,Y,37.336604,-121.985485,FALSE
Past Sale,Condo/Coop,3003 Kaiser Dr Unit B,SANTA CLARA,CA,95051,475000,2,1.5,SANTA CLARA,992,484,1971,0,,,Sold,,,,,475000,2015-09-03,"550,000",http://www.redfin.com/CA/Santa-Clara/3003-Kaiser-Dr-95051/unit-B/home/1804316,MLSListings Inc. (MLSLI),ML81497310,Intero Real Estate Services,N,Y,37.342348,-121.981199,FALSE
Past Sale,Condo/Coop,3310 Lochinvar Ave #60,SANTA CLARA,CA,95051,499000,2,1.5,SANTA CLARA,954,2614,1964,0,,,Sold,,,,,499000,2015-09-09,"553,000",http://www.redfin.com/CA/Santa-Clara/3310-Lochinvar-Ave-95051/unit-60/home/1039734,MLSListings Inc. (MLSLI),ML81497250,CSR Real Estate Services,N,Y,37.339072,-121.9882284,FALSE
Past Sale,Single Family Residential,3038 Via Siena Pl (Unable to map),Santa Clara,CA,95051,,3,2.5,95051,1762,,2015,,,,,,,,,,2015-09-10,"1,340,000",http://www.redfin.com/CA/Santa-Clara/3038-Via-Siena-Pl-95051/home/95957645,,,,N,Y,37.340796,-121.9820244,
Past Sale,Single Family Residential,2632 Forbes Ave,SANTA CLARA,CA,95051,1298880,3,3,SANTA CLARA,1810,5726,1954,2,Garage,,Sold,,,,,1298880,2015-09-09,"1,398,000",http://www.redfin.com/CA/Santa-Clara/2632-Forbes-Ave-95051/home/741394,MLSListings Inc. (MLSLI),ML81497854,HomeSmart Platinum Living,N,Y,37.334378,-121.968824,FALSE
Past Sale,Condo/Coop,151 Buckingham Dr #218,SANTA CLARA,CA,95051,655000,2,2,SANTA CLARA,1260,1260,1969,0,,,Sold,,,,,655000,2015-09-04,"731,000",http://www.redfin.com/CA/Santa-Clara/151-Buckingham-Dr-95051/unit-218/home/743683,MLSListings Inc. (MLSLI),ML81485437,KW Bay Area Estates,N,Y,37.326622,-121.971376,FALSE
Past Sale,Single Family Residential,2605 Taft Ave,SANTA CLARA,CA,95051,1675000,4,2.5,SANTA CLARA,2468,12177,1973,2,Garage,,Sold,,,,,1675000,2015-09-03,"1,625,000",http://www.redfin.com/CA/Santa-Clara/2605-Taft-Ave-95051/home/1368613,MLSListings Inc. (MLSLI),ML81486455,Coldwell Banker,N,Y,37.334121,-121.968548,FALSE
Past Sale,Single Family Residential,3359 Soares Ct,SANTA CLARA,CA,95051,998000,4,2.5,SANTA CLARA,2261,5400,1965,2,Garage,,Sold,,,,,998000,2015-07-22,"1,230,000",http://www.redfin.com/CA/Santa-Clara/3359-Soares-Ct-95051/home/1414021,MLSListings Inc. (MLSLI),ML81471926,Intero Real Estate Services,N,Y,37.3441938,-121.9885704,FALSE
Past Sale,Condo/Coop,966 Kiely Blvd Unit K,SANTA CLARA,CA,95051,299000,1,1,SANTA CLARA,670,436,1971,0,,,Sold,,,,,299000,2015-08-14,"362,000",http://www.redfin.com/CA/Santa-Clara/966-Kiely-Blvd-95051/unit-K/home/1343488,MLSListings Inc. (MLSLI),ML81462316,Alain Pinel Realtors,N,Y,37.342936,-121.98093,FALSE
Past Sale,Single Family Residential,2416 Ramke Pl,SANTA CLARA,CA,95050,935000,3,2,SANTA CLARA,1340,5958,1957,4,Garage,,Sold,,,,,935000,2015-08-14,"1,035,000",http://www.redfin.com/CA/Santa-Clara/2416-Ramke-Pl-95050/home/1492567,MLSListings Inc. (MLSLI),ML81497151,Realty World-Archer Miller,N,Y,37.3365492,-121.9649123,FALSE
Past Sale,Condo/Coop,2580 Homestead Rd #2101,SANTA CLARA,CA,95051,699950,3,2,SANTA CLARA,1489,1489,2007,0,,,Sold,,,,,699950,2015-08-14,"750,000",http://www.redfin.com/CA/Santa-Clara/2580-Homestead-Rd-95051/unit-2101/home/12181529,MLSListings Inc. (MLSLI),ML81472116,Intero Real Estate Services,N,Y,37.3397753,-121.9715281,FALSE
Past Sale,Condo/Coop,2580 Homestead Rd #3103,SANTA CLARA,CA,95051,749950,3,2,SANTA CLARA,1489,1489,2007,8,,,Sold,,,,,749950,2015-08-11,"755,000",http://www.redfin.com/CA/Santa-Clara/2580-Homestead-Rd-95051/unit-3103/home/12180378,MLSListings Inc. (MLSLI),ML81468439,Intero Real Estate Services,N,Y,37.3397753,-121.9715281,FALSE
Past Sale,Single Family Residential,417 Luther Dr,SANTA CLARA,CA,95051,1299000,3,2,SANTA CLARA,1756,7987,1960,2,Garage,,Sold,,,,,1299000,2015-08-07,"1,500,000",http://www.redfin.com/CA/Santa-Clara/417-Luther-Dr-95051/home/1492650,MLSListings Inc. (MLSLI),ML81484474,Windermere Silicon Valley,N,Y,37.3305549,-121.971973,FALSE
Past Sale,Single Family Residential,1262 Blackfield Dr,Santa Clara,CA,95051,,5,4,95051,3004,,1954,,,,,,,,,,2015-06-18,"1,400,000",http://www.redfin.com/CA/Santa-Clara/1262-Blackfield-Dr-95051/home/1713428,,,,N,Y,37.3486511,-121.9695202,
Past Sale,Condo/Coop,121 Buckingham Dr #27,SANTA CLARA,CA,95051,533888,2,2,SANTA CLARA,1137,1260,1969,1,,,Sold,,,,2015-05-26,438888,2015-06-29,"530,000",http://www.redfin.com/CA/Santa-Clara/121-Buckingham-Dr-95051/unit-27/home/1414620,MLSListings Inc. (MLSLI),ML81463753,Alain Pinel Realtors,N,Y,37.325941,-121.9708105,FALSE
Past Sale,Single Family Residential,3746 Dunford Way,SANTA CLARA,CA,95051,1098000,4,2,SANTA CLARA,1480,6869,1961,2,Garage,,Sold,,,,,1098000,2015-07-06,"1,470,000",http://www.redfin.com/CA/Santa-Clara/3746-Dunford-Way-95051/home/1550007,MLSListings Inc. (MLSLI),ML81467130,Keller Williams Realty - Cupertino,N,Y,37.3444545,-121.9999202,FALSE
Past Sale,Multi-Family (5+ Unit),868 Bing Dr Apt 1,Santa Clara,CA,95051,,,,95051,3336,,1963,,,,,,,,,,2015-07-02,"249,500",http://www.redfin.com/CA/Santa-Clara/868-Bing-Dr-95051/unit-1/home/982419,,,,N,Y,37.3403177,-121.9930777,
Past Sale,Single Family Residential,392 Rosemont Dr,SANTA CLARA,CA,95051,1200000,3,1.5,SANTA CLARA,1409,8276,1958,2,Garage,,Sold,,,,,1200000,2015-08-11,"1,210,000",http://www.redfin.com/CA/Santa-Clara/392-Rosemont-Dr-95051/home/1249574,MLSListings Inc. (MLSLI),ML81483764,Intero Real Estate Services,N,Y,37.3301007,-121.9927666,FALSE
Past Sale,Townhouse,3243 Benton St,Santa Clara,CA,95051,,4,2,95051,1564,,1962,,,,,,,,,,2015-06-25,"500,000",http://www.redfin.com/CA/Santa-Clara/3243-Benton-St-95051/home/1264076,,,,N,Y,37.3455756,-121.9857604,
Past Sale,Condo/Coop,895 Quince Ave Unit 13,Santa Clara,CA,95051,,2,2,95051,1470,,1985,,,,,,,,,,2015-06-17,"659,000",http://www.redfin.com/CA/Santa-Clara/895-Quince-Ave-95051/unit-13/home/1776478,,,,N,Y,37.3411558,-121.9860686,
Past Sale,Condo/Coop,942 Kiely Blvd Unit A,Santa Clara,CA,95051,,1,1,95051,440,,1971,,,,,,,,,,2015-06-19,"277,000",http://www.redfin.com/CA/Santa-Clara/942-Kiely-Blvd-95051/unit-A/home/1414352,,,,N,Y,37.342919,-121.979178,
Past Sale,Single Family Residential,1012 Julie Ct,SANTA CLARA,CA,95051,929000,4,2,SANTA CLARA,1845,8610,1965,2,Garage,,Sold,,,,2015-07-02,1100000,2015-08-31,"981,000",http://www.redfin.com/CA/SANTA-CLARA/1012-JULIE-CT-95051/home/1118668,MLSListings Inc. (MLSLI),ML81470657,Century 21 M&M and Associates,N,Y,37.344908,-121.988672,FALSE
Past Sale,Condo/Coop,2380 Homestead Rd #1202,SANTA CLARA,CA,95050,508000,2,1.5,SANTA CLARA,1020,1020,2007,0,,,Sold,,,,,508000,2015-06-25,"568,888",http://www.redfin.com/CA/Santa-Clara/2380-Homestead-Rd-95050/unit-1202/home/12181527,MLSListings Inc. (MLSLI),ML81465991,Coldwell Banker,N,Y,37.341382,-121.966099,FALSE
Past Sale,Single Family Residential,1040 Los Padres Blvd,SANTA CLARA,CA,95050,864800,3,2,SANTA CLARA,1598,6098,1952,2,Garage,,Sold,,,,,864800,2015-06-25,"1,000,000",http://www.redfin.com/CA/Santa-Clara/1040-Los-Padres-Blvd-95050/home/1283431,MLSListings Inc. (MLSLI),ML81466157,Intero Real Estate Services,N,Y,37.3458258,-121.9651305,FALSE
Past Sale,Single Family Residential,968 Madeline Ln,SANTA CLARA,CA,95050,799000,3,1.5,SANTA CLARA,1156,5883,1952,2,Garage,,Sold,,,,,799000,2015-08-17,"890,000",http://www.redfin.com/CA/Santa-Clara/968-Madeline-Ln-95050/home/1630639,MLSListings Inc. (MLSLI),ML81483209,"Realty World-Kevin F. Garvey, Broker",N,Y,37.3448498,-121.9661068,FALSE
Past Sale,Single Family Residential,3235 Catalina Ave,SANTA CLARA,CA,95051,999000,3,2,SANTA CLARA,1481,6300,1963,2,Garage,,Sold,,,,,999000,2015-07-10,"1,190,000",http://www.redfin.com/CA/Santa-Clara/3235-Catalina-Ave-95051/home/735800,MLSListings Inc. (MLSLI),ML81469580,Intero Real Estate Services,N,Y,37.344716,-121.985699,FALSE
Past Sale,Single Family Residential,2757 El Sobrante St,Santa Clara,CA,95051,,3,1,95051,1210,,1956,,,,,,,,,,2015-07-22,"217,000",http://www.redfin.com/CA/Santa-Clara/2757-El-Sobrante-St-95051/home/1324203,,,,N,Y,37.349424,-121.976476,
Past Sale,Condo/Coop,3033 Kaiser Dr Unit E,SANTA CLARA,CA,95051,360000,1,1,SANTA CLARA,670,816,1971,1,Garage,,Sold,,,,,360000,2015-08-12,"373,000",http://www.redfin.com/CA/Santa-Clara/3033-Kaiser-Dr-95051/unit-E/home/90731362,MLSListings Inc. (MLSLI),ML81497465,Century 21 M&M and Associates,N,Y,37.343595,-121.982566,FALSE
Past Sale,Single Family Residential,3086 Via Siena Pl (Unable to map),Santa Clara,CA,95051,,4,2.5,95051,1957,,2015,,,,,,,,,,2015-06-25,"1,388,482",http://www.redfin.com/CA/Santa-Clara/3086-Via-Siena-Pl-95051/home/95956274,,,,N,Y,37.340796,-121.9820244,
Past Sale,Single Family Residential,3090 Via Siena Pl (Unable to map),Santa Clara,CA,95051,,3,2.5,95051,1638,,2015,,,,,,,,,,2015-06-25,"1,219,500",http://www.redfin.com/CA/Santa-Clara/3090-Via-Siena-Pl-95051/home/95956281,,,,N,Y,37.340796,-121.9820244,
Past Sale,Townhouse,3207 Benton St,SANTA CLARA,CA,95051,658000,3,2.5,SANTA CLARA,1564,722,1962,1,,,Sold,,,,2015-07-18,685000,2015-08-28,"658,000",http://www.redfin.com/CA/Santa-Clara/3207-Benton-St-95051/home/1738822,MLSListings Inc. (MLSLI),ML81469247,RE/MAX Properties West,N,Y,37.346304,-121.984847,FALSE
Past Sale,Condo/Coop,1400 Bowe Ave #204,SANTA CLARA,CA,95051,519000,2,2,SANTA CLARA,1062,1307,1984,0,,,Sold,,,,,519000,2015-08-18,"613,000",http://www.redfin.com/CA/Santa-Clara/1400-Bowe-Ave-95051/unit-204/home/1515259,MLSListings Inc. (MLSLI),ML81483593,Prestige Realty Advisors,N,Y,37.3497134,-121.9747449,FALSE
Past Sale,Single Family Residential,3531 Tracy Dr,SANTA CLARA,CA,95051,1299000,3,2,SANTA CLARA,1420,6308,1956,2,Garage,,Sold,,,,,1299000,2015-08-28,"1,580,000",http://www.redfin.com/CA/Santa-Clara/3531-Tracy-Dr-95051/home/1470706,MLSListings Inc. (MLSLI),ML81498282,Keller Williams Realty - Cupertino,N,Y,37.328354,-121.993752,FALSE
Past Sale,Multi-Family (2-4 Unit),3260 Rustic Dr,SANTA CLARA,CA,95051,879000,5,,SANTA CLARA,1992,8773,1960,1,Garage,,Sold,,,,,879000,2015-08-25,"1,070,000",http://www.redfin.com/CA/Santa-Clara/3260-Rustic-Dr-95051/home/1475035,MLSListings Inc. (MLSLI),ML81468723,Alain Pinel Realtors,N,Y,37.3422035,-121.9863587,FALSE
Past Sale,Condo/Coop,962 Kiely Blvd Unit G,SANTA CLARA,CA,95051,360000,1,1,SANTA CLARA,670,816,1971,1,Garage,,Sold,,,,,360000,2015-09-01,"375,000",http://www.redfin.com/CA/Santa-Clara/962-Kiely-Blvd-95051/unit-G/home/1530379,MLSListings Inc. (MLSLI),ML81500710,Action Properties,N,Y,37.342517,-121.980883,FALSE
Past Sale,Single Family Residential,714 Nicholson Ave,SANTA CLARA,CA,95051,1495000,5,4,SANTA CLARA,2858,5253,2006,2,Garage,,Sold,,,,,1495000,2015-08-27,"1,600,000",http://www.redfin.com/CA/Santa-Clara/714-Nicholson-Ave-95051/home/1549460,MLSListings Inc. (MLSLI),ML81486181,Intero Real Estate Services,N,Y,37.336497,-121.973732,FALSE
Past Sale,Single Family Residential,1361 Los Padres,SANTA CLARA,CA,95050,889999,3,1.5,SANTA CLARA,1359,7590,1955,2,Garage,,Sold,,,,,889999,2015-08-13,"925,000",http://www.redfin.com/CA/Santa-Clara/1361-Los-Padres-Blvd-95050/home/1200952,MLSListings Inc. (MLSLI),ML81471385,Bay Realty Group,N,Y,37.349939,-121.964629,FALSE
Past Sale,Single Family Residential,3075 Atherton Dr,SANTA CLARA,CA,95051,1388888,4,3,SANTA CLARA,1868,5449,1955,2,Garage,,Sold,,,,,1388888,2015-08-18,"1,738,888",http://www.redfin.com/CA/Santa-Clara/3075-Atherton-Dr-95051/home/916212,MLSListings Inc. (MLSLI),ML81485131,Realty World Premier Properties,N,Y,37.328715,-121.982049,FALSE
Past Sale,Single Family Residential,73 Claremont Ave,SANTA CLARA,CA,95051,1388888,3,2,SANTA CLARA,1292,6377,1956,2,Garage,,Sold,,,,,1388888,2015-08-10,"1,300,000",http://www.redfin.com/CA/Santa-Clara/73-Claremont-Ave-95051/home/1739000,MLSListings Inc. (MLSLI),ML81470791,AnnaCo Real Estate,N,Y,37.324399,-121.991316,FALSE
Past Sale,Single Family Residential,3076 Via Siena Pl (Unable to map),Santa Clara,CA,95051,,3,2.5,95051,1762,,2015,,,,,,,,,,2015-06-30,"1,289,000",http://www.redfin.com/CA/Santa-Clara/3076-Via-Siena-Pl-95051/home/101823382,,,,N,Y,37.340796,-121.9820244,
Past Sale,Single Family Residential,575 Barto St,SANTA CLARA,CA,95051,1198000,4,2,SANTA CLARA,1687,8326,1963,2,Garage,,Sold,,,,,1198000,2015-08-27,"1,310,000",http://www.redfin.com/CA/Santa-Clara/575-Barto-St-95051/home/737203,MLSListings Inc. (MLSLI),ML81486103,Realty World RFP Realty,N,Y,37.332394,-121.983406,FALSE
Past Sale,Single Family Residential,2617 Gamblin Dr,SANTA CLARA,CA,95051,1200000,4,2.5,SANTA CLARA,2086,8050,1976,2,Garage,,Sold,,,,,1200000,2015-09-02,"1,225,000",http://www.redfin.com/CA/Santa-Clara/2617-Gamblin-Dr-95051/home/1034463,MLSListings Inc. (MLSLI),ML81497805,Fireside Realty,N,Y,37.329665,-121.969054,FALSE
Past Sale,Single Family Residential,630 Wilson Ct,SANTA CLARA,CA,95051,924950,3,2,SANTA CLARA,1440,5540,1955,2,Garage,,Sold,,,,,924950,2015-08-26,"905,000",http://www.redfin.com/CA/Santa-Clara/630-Wilson-Ct-95051/home/1074668,MLSListings Inc. (MLSLI),ML81484046,Intero Real Estate Services,N,Y,37.334421,-121.971541,FALSE
Past Sale,Single Family Residential,3376 Solano Ct,SANTA CLARA,CA,95051,1299950,5,3,SANTA CLARA,2411,8276,1965,2,Garage,,Sold,,,,,1299950,2015-08-21,"1,200,000",http://www.redfin.com/CA/Santa-Clara/3376-Solano-Ct-95051/home/1176666,MLSListings Inc. (MLSLI),ML81468382,"Intero San Jose, Willow Glen Lincoln Ave",N,Y,37.343343,-121.989169,FALSE
Past Sale,Single Family Residential,3444 Kenyon Dr,SANTA CLARA,CA,95051,1175000,3,2,SANTA CLARA,1592,7716,1961,2,Garage,,Sold,,,,,1175000,2015-08-21,"1,225,100",http://www.redfin.com/CA/Santa-Clara/3444-Kenyon-Dr-95051/home/1226043,MLSListings Inc. (MLSLI),ML81483550,Bailey Properties,N,Y,37.334317,-121.991611,FALSE
Past Sale,Condo/Coop,980 Kiely Blvd Unit 211,Santa Clara,CA,95051,,1,1,95051,622,,1971,,,,,,,,,,2015-06-16,"310,000",http://www.redfin.com/CA/Santa-Clara/980-Kiely-Blvd-95051/unit-211/home/1414328,,,,N,Y,37.343308,-121.980085,
Past Sale,Condo/Coop,952 Kiely Blvd Unit G,SANTA CLARA,CA,95051,449950,2,2,SANTA CLARA,956,436,1971,0,,,Sold,,,,,449950,2015-07-22,"474,000",http://www.redfin.com/CA/Santa-Clara/952-Kiely-Blvd-95051/unit-G/home/1776686,MLSListings Inc. (MLSLI),ML81469715,Intero Real Estate Services,N,Y,37.3419039,-121.9801619,FALSE
Past Sale,Single Family Residential,2648 Lindentree Ln,SANTA CLARA,CA,95051,2200000,4,3,SANTA CLARA,2382,10975,1972,2,Garage,,Sold,,,,,2200000,2015-07-22,"2,200,000",http://www.redfin.com/CA/Santa-Clara/2648-Lindentree-Ln-95051/home/1725017,MLSListings Inc. (MLSLI),ML81486306,Sloan Properties,N,Y,37.332242,-121.969788,FALSE
Past Sale,Single Family Residential,183 Blake Ave,SANTA CLARA,CA,95051,1198000,3,2,SANTA CLARA,1155,6028,1955,2,Garage,,Sold,,,,,1198000,2015-07-10,"1,400,000",http://www.redfin.com/CA/Santa-Clara/183-Blake-Ave-95051/home/1859181,MLSListings Inc. (MLSLI),ML81469898,Intero Real Estate Services,N,Y,37.326545,-121.979796,FALSE
